Address,Country,Latitude,Longitude,Address found,Unnamed: 5
"Miami Beach, FL",us,25.79223633,-80.13484955,"Miami Beach, FL",
"Reno, NV",us,39.52690125,-119.8132858,"Reno, NV",
"Montclair, NJ",us,40.82216644,-74.21266174,"Montclair, NJ",
"Blacksburg, VA",us,37.22578049,-80.4101181,"Blacksburg, VA",
"Lexington, KY",us,38.0463562,-84.49702454,"Lexington, KY",
"Bean Blossom, IN",us,39.29941177,-86.65196228,"Bean Blossom, IN",
"Phoenix, AZ",us,33.44820404,-112.0725861,"Phoenix, AZ",
"New York, NY",us,40.71304703,-74.00723267,"New York, NY",
"New York, NY",us,40.71304703,-74.00723267,"New York, NY",
"Brooklyn, NY",us,40.69252777,-73.99099731,"Brooklyn, NY",
"Avondale, AZ",us,33.43534088,-112.3496704,"Avondale, AZ",
"West Seneca, NY",us,42.84327316,-78.79080963,"West Seneca, NY",
"Portland, ME",us,43.65921783,-70.2565155,"Portland, ME",
"Brooklyn, NY",us,40.69252777,-73.99099731,"Brooklyn, NY",
"Oak Park, IL",us,41.88864899,-87.79449463,"Oak Park, IL",
"Pittsburg, PA",us,40.44216919,-79.99495697,"Pittsburgh, PA",
"East Lansing, MI",us,42.74687576,-84.48369598,"East Lansing, MI",
"Brooklyn, NY",us,40.69252777,-73.99099731,"Brooklyn, NY",
"New York, NY",us,40.71304703,-74.00723267,"New York, NY",
"Los Angeles, CA",us,34.05223846,-118.2433472,"Los Angeles, CA",
"Westfield, NJ",us,40.64916229,-74.34325409,"Westfield, NJ",
"Encinitas, CA",us,33.04480362,-117.29245,"Encinitas, CA",
"Amherst, MA",us,42.3758049,-72.51987457,"Amherst, MA",
"New York, NY",us,40.71304703,-74.00723267,"New York, NY",
"Woodcliff, NJ",us,40.80667114,-73.99821472,"Woodcliff, NJ",
"San Carlos, CA",us,37.50373459,-122.2649307,"San Carlos, CA",
"Hampton Falls, NH",us,42.91583633,-70.86428833,"Hampton Falls, NH",
"Great Neck, NY",us,40.80056763,-73.72940826,"Great Neck, NY",
"Piedmont, CA",us,37.82626343,-122.232872,"Piedmont, CA",
"Ashland, MA",us,42.26210403,-71.46662903,"Ashland, MA",
"Arnold, MD",us,39.04721832,-76.49667358,"Arnold, MD",
"Fairfax, VA",us,38.84712219,-77.30631256,"Fairfax, VA",
"Las Vegas, NV",us,36.16909027,-115.1405792,"Las Vegas, NV",
"Fairfax, VA",us,38.84712219,-77.30631256,"Fairfax, VA",
"Nashville, TN",us,36.1663475,-86.77905273,"Nashville, TN",
"New Haven, CT",us,41.30825043,-72.92416382,"New Haven, CT",
"Middlebury, VT",us,44.01418686,-73.16669464,"Middlebury, VT",
"Natick, MA",us,42.28377151,-71.34729004,"Natick, MA",
"Mahwah, NJ",us,41.09398651,-74.14508057,"Mahwah, NJ",
"Ridgefield, CT",us,41.28145599,-73.49842834,"Ridgefield, CT",
"Bristol, RI",us,41.67707062,-71.25979614,"Bristol, RI",
"Hillsdale, NJ",us,41.00262833,-74.04051208,"Hillsdale, NJ",
"Havertown, NJ",us,39.98332977,-75.29972076,"Haverford Township, PA",
"Lakewood, NJ",us,40.08991241,-74.21627045,"Lakewood, NJ",
"Ramapo, NY",us,41.12815857,-74.16290283,"Ramapo, NY",
"St. Cloud, MN",us,45.55929184,-94.15651703,"St Cloud, MN",
"Los Angeles, CA",us,34.05223846,-118.2433472,"Los Angeles, CA",
"Jackson, NJ",us,40.13329315,-74.38461304,"Jackson, NJ",
"Howell, NJ",us,40.15455627,-74.23114014,"Howell, NJ",
"East Cobb, GA",us,33.96611023,-84.41139221,"East Cobb, GA",
"Santa Cruz, CA",us,36.97414017,-122.028801,"Santa Cruz, CA",
"Brockton, MA",us,42.08329773,-71.01990509,"Brockton, MA",
"Queens, NY",us,40.75977707,-73.81729889,"Queens, NY",
"Bedford, MA",us,42.49223709,-71.27994537,"Bedford, MA",
"Cambridge, MA",us,42.36524963,-71.10501862,"Cambridge, MA",
"Waltham, MA",us,42.37617111,-71.23899078,"Waltham, MA",
"Minneapolis, MN",us,44.97748566,-93.26436615,"Minneapolis, MN",
"Sussex, NJ",us,41.20780945,-74.6071701,"Sussex, NJ",
"Warwick, NY",us,41.26050568,-74.35713959,"Warwick, NY",
"Oyster Bay, NY",us,40.87210464,-73.53074646,"Oyster Bay, NY",
"New York, NY",us,40.71304703,-74.00723267,"New York, NY",
"Waltham, MA",us,42.37617111,-71.23899078,"Waltham, MA",
"Palo Alto, CA",us,37.44510269,-122.1603622,"Palo Alto, CA",
"Oak Park, IL",us,41.88864899,-87.79449463,"Oak Park, IL",
"Providence, RI",us,41.82446289,-71.41275024,"Providence, RI",
"Brooklyn, NY",us,40.69252777,-73.99099731,"Brooklyn, NY",
"Coral Gables, FL",us,25.71029091,-80.26865387,"Coral Gables, FL",
"Coral Gables, FL",us,25.71029091,-80.26865387,"Coral Gables, FL",
"Washington, DC",us,38.89206314,-77.01991272,"Washington, DC",
"Amherst, MA",us,42.3758049,-72.51987457,"Amherst, MA",
"Amhertst, MA",us,42.3758049,-72.51987457,"Amherst, MA",
"Forest Hills, NY",us,40.72829437,-73.84461212,"Forest Hills, NY",
"Wellesley , MA",us,42.29692841,-71.29185486,"Wellesley, MA",
"Oak Park, CA",us,34.17514801,-118.7580948,"Oak Park, CA",
"Highland Park, NJ",us,40.49972153,-74.42622375,"Highland Park, NJ",
"Highland Park, NJ",us,40.49972153,-74.42622375,"Highland Park, NJ",
"Bellingham, WA",us,48.75489807,-122.4781189,"Bellingham, WA",
"Bellingham, WA",us,48.75489807,-122.4781189,"Bellingham, WA",
"Amherst, MA",us,42.3758049,-72.51987457,"Amherst, MA",
"East Brunswick, NJ",us,40.42343903,-74.42468262,"East Brunswick, NJ",
"Newtonville, MA",us,42.34484863,-71.2092514,"Newtonville, MA",
"Newtonville, MA",us,42.34484863,-71.2092514,"Newtonville, MA",
"Brooklyn, NY",us,40.69252777,-73.99099731,"Brooklyn, NY",
"Las Vegas, NV",us,36.16909027,-115.1405792,"Las Vegas, NV",
"Hillsdale, NJ",us,41.00262833,-74.04051208,"Hillsdale, NJ",
"Raleigh, NC",us,35.78130341,-78.64167786,"Raleigh, NC",
"El Paso, TX",us,31.76010704,-106.4922943,"El Paso, TX",
"Ithaca, NY",us,42.46876526,-76.48567963,"Ithaca, NY",
"San Marcos, TX",us,29.88208389,-97.93998718,"San Marcos, TX",
"Minneapolis, MN",us,44.97748566,-93.26436615,"Minneapolis, MN",
"Baltimore, MD",us,39.29044342,-76.61233521,"Baltimore, MD",
"Ithaca, NY",us,42.46876526,-76.48567963,"Ithaca, NY",
"Ithaca, NY",us,42.46876526,-76.48567963,"Ithaca, NY",
"Reading, MA",us,42.52643204,-71.10481262,"Reading, MA",
"Stoughton, MA",us,42.12559891,-71.10216522,"Stoughton, MA",
"Phoenix, AZ",us,33.44820404,-112.0725861,"Phoenix, AZ",
"Providence, RI",us,41.82446289,-71.41275024,"Providence, RI",
"Amherst, MA",us,42.3758049,-72.51987457,"Amherst, MA",
"Ridgefield, CT",us,41.28145599,-73.49842834,"Ridgefield, CT",
"Barrington, RI",us,41.73989105,-71.30799103,"Barrington, RI",
"New York, NY",us,40.71304703,-74.00723267,"New York, NY",
"New York, NY",us,40.71304703,-74.00723267,"New York, NY",
"New York, NY",us,40.71304703,-74.00723267,"New York, NY",
"New York, NY",us,40.71304703,-74.00723267,"New York, NY",
"Nockamixon Township, PA",us,40.52606201,-75.17164612,"Nockamixon, PA",
"Birmingham, AL",us,33.52285767,-86.80770874,"Birmingham, AL",
"Stockton, CA",us,37.95754242,-121.29245,"Stockton, CA",
"Skokie, IL",us,42.02630615,-87.75469208,"Skokie, IL",
"Brooklyn, NY",us,40.69252777,-73.99099731,"Brooklyn, NY",
"Scottsdale, AZ",us,33.49490738,-111.9260635,"Scottsdale, AZ",
"Scottsdale, AZ",us,33.49490738,-111.9260635,"Scottsdale, AZ",
"Glenrock, NJ",us,40.9622879,-74.12624359,"Glen Rock, NJ",
"Miami Beach, FL",us,25.79223633,-80.13484955,"Miami Beach, FL",
"Brooklyn, NY",us,40.69252777,-73.99099731,"Brooklyn, NY",
"Mt. Lebanon, PA",us,40.38011932,-80.04482269,"Mount Lebanon, PA",
"New Rochelle, NY",us,40.9115448,-73.78233337,"New Rochelle, NY",
"Cross River, NY",us,41.26500702,-73.60923004,"Cross River, NY",
"New York, NY",us,40.71304703,-74.00723267,"New York, NY",
"Queens, NY",us,40.75977707,-73.81729889,"Queens, NY",
"Hempstead, NY",us,40.70690155,-73.62034607,"Hempstead, NY",
"Hempstead, NY",us,40.70690155,-73.62034607,"Hempstead, NY",
"New York, NY",us,40.71304703,-74.00723267,"New York, NY",
"New York, NY",us,40.71304703,-74.00723267,"New York, NY",
"Ventura, CA",us,34.28083038,-119.2931061,"Ventura, CA",
"Denver, CO",us,39.73845291,-104.9848557,"Denver, CO",
"Poughkeepsie, NC",us,35.53937531,-79.1854248,North Carolina,
"Seaford, NY",us,40.66570282,-73.48983002,"Seaford, NY",
"Ledyard, CT",us,41.42871475,-72.07071686,"Ledyard Center, CT",
"Fire Island, NY",us,40.62491989,-73.25885773,"Fire Island, NY",
"Teaneck, NJ",us,40.88481903,-74.00655365,"Teaneck, NJ",
"New York, NY",us,40.71304703,-74.00723267,"New York, NY",
"Swarthmore, PA",us,39.89849091,-75.3438797,"Swarthmore, PA",
"Madison, WI",us,43.04048538,-89.38318634,"Madison Town, WI",
"New Brunswick, NJ",us,40.49594879,-74.44412231,"New Brunswick, NJ",
"Norton, MA",us,41.96720505,-71.18852997,"Norton, MA",
"Jackson, NJ",us,40.13329315,-74.38461304,"Jackson, NJ",
"Swarthmore, PA",us,39.89849091,-75.3438797,"Swarthmore, PA",
"Syracuse , NY",us,43.04794312,-76.14744568,"Syracuse, NY",
"Morristown, NJ",us,40.79663849,-74.4815979,"Morristown, NJ",
"Arnold, MA",us,34.02199,-6.83762,Morocco,
"Brunswick, ME",us,43.91667938,-69.96598816,"Brunswick, ME",
"Fair Lawn, NJ",us,40.9361496,-74.13166046,"Fair Lawn, NJ",
"Manalapan, NJ",us,40.24941635,-74.35874176,"Manalapan, NJ",
"Washington, DC",us,38.89206314,-77.01991272,"Washington, DC",
"Burtonsville, MD",us,39.10487366,-76.93373871,"Burtonsville, MD",
"New York, NY",us,40.71304703,-74.00723267,"New York, NY",
"Nyack , NY",us,41.09098434,-73.91823578,"Nyack, NY",
"Chicago, IL",us,41.8832283,-87.63240051,"Chicago, IL",
"Sienna Plantation, TX",us,29.48752022,-95.50764465,"Sienna Plantation, TX",
"New York, NY",us,40.71304703,-74.00723267,"New York, NY",
"Akron, OH",us,41.08481979,-81.51560974,"Akron, OH",
"Roanoke, VA",us,37.27113342,-79.9390564,"Roanoke, VA",
"Fresno, CA",us,36.73165512,-119.7858582,"Fresno, CA",
"Fernandina Beach, FL",us,30.66989326,-81.4514389,"Fernandina Beach, FL",
"Ann Arbor, MI",us,42.28141785,-83.74847412,"Ann Arbor, MI",
"Canon City, CO",us,38.44218445,-105.2348938,"Canon City, CO",
"Boise, ID",us,43.61579132,-116.2015762,"Boise, ID",
"Bronyx, NY",us,40.8261528,-73.9202652,"Bronx, NY",
"Rockville, MD",us,39.08417892,-77.1529007,"Rockville, MD",
"Loganville, GA",us,33.83824539,-83.90214539,"Loganville, GA",
"Syracuse , NY",us,43.04794312,-76.14744568,"Syracuse, NY",
"Baltimore, MD",us,39.29044342,-76.61233521,"Baltimore, MD",
"Palm Springs, CA",us,33.83030319,-116.5468445,"Palm Springs, CA",
"Jackson, NJ",us,40.13329315,-74.38461304,"Jackson, NJ",
"Seattle, WA",us,47.60322952,-122.3302765,"Seattle, WA",
"Eugene, OR",us,44.05215454,-123.0911942,"Eugene, OR",
"Longmont, CO",us,40.16572952,-105.1011963,"Longmont, CO",
"East Stroudsburg, PA",us,41.00282669,-75.18322754,"East Stroudsburg, PA",
"Bellevue, WA",us,47.61370087,-122.1909332,"Bellevue, WA",
"Spokane, WA",us,47.6590004,-117.4250259,"Spokane, WA",
"Port Washington, NY",us,40.83086777,-73.68417358,"Port Washington, NY",
"Billerica, MA",us,42.56367111,-71.27111816,"Billerica, MA",
"Brooklyn, NY",us,40.69252777,-73.99099731,"Brooklyn, NY",
"Ridgefield, CT",us,41.28145599,-73.49842834,"Ridgefield, CT",
"Swarthmore, PA",us,39.89849091,-75.3438797,"Swarthmore, PA",
"Keene, NH",us,42.9343338,-72.27920532,"Keene, NH",
"Minneapolis, MN",us,44.97748566,-93.26436615,"Minneapolis, MN",
"Keene, NH",us,42.9343338,-72.27920532,"Keene, NH",
"Portland, OR",us,45.51601791,-122.681427,"Portland, OR",
"Chicago, IL",us,41.8832283,-87.63240051,"Chicago, IL",
"Atlantic Highlands, NJ",us,40.41245651,-74.03844452,"Atlantic Highlands, NJ",
"New York, NY",us,40.71304703,-74.00723267,"New York, NY",
"Spring, TX",us,30.07973099,-95.41768646,"Spring, TX",
"Las Vegas, NV",us,36.16909027,-115.1405792,"Las Vegas, NV",
"Chaska, MN",us,44.78932953,-93.60184479,"Chaska, MN",
"Frederick, MD",us,39.41418076,-77.41093445,"Frederick, MD",
"Lafayette, LA",us,30.22126007,-92.01877594,"Lafayette, LA",
"Gastonia, NC",us,35.26215744,-81.18710327,"Gastonia, NC",
"Ashburn, VA",us,39.04276657,-77.48581696,"Ashburn, VA",
"Charlottesville, VA",us,38.03104782,-78.47415924,"Charlottesville, VA",
"Ridgewood, NJ",us,40.97966766,-74.11917877,"Ridgewood, NJ",
"Port Neches, TX",us,29.98060417,-93.96361542,"Port Neches, TX",
"Bend, OR",us,44.0580864,-121.3151474,"Bend, OR",
"Lincoln, NE",us,40.81359863,-96.7026062,"Lincoln, NE",
"Santa Rosa, CA",us,38.43969727,-122.7156448,"Santa Rosa, CA",
"Ashburn, VA",us,39.04276657,-77.48581696,"Ashburn, VA",
"Staunton, VA",us,38.15748978,-79.07132721,"Staunton, VA",
"Everglades City, FL",us,25.85350037,-81.38726807,"Everglades City, FL",
"Westminster, MD",us,39.57523346,-76.99604034,"Westminster, MD",
"Massapequa Park, NY",us,40.68172073,-73.44732666,"Massapequa Park, NY",
"Oceanside, NY",us,40.64201736,-73.63394928,"Oceanside, NY",
"Naples, ME",us,43.96896362,-70.60347748,"Naples, ME",
"Portland, OR",us,45.51601791,-122.681427,"Portland, OR",
"Costa Mesa, CA",us,33.66385651,-117.9047623,"Costa Mesa, CA",
"Las Vegas, NV",us,36.16909027,-115.1405792,"Las Vegas, NV",
"Idaho Falls , ID",us,43.49133301,-112.0402679,"Idaho Falls, ID",
"Brooklyn, NY",us,40.69252777,-73.99099731,"Brooklyn, NY",
"Brightwaters, NY",us,40.71139145,-73.25966644,"Brightwaters, NY",
"Colorado Springs, CO",us,38.83522415,-104.8198013,"Colorado Springs, CO",
"Reno, NV",us,39.52690125,-119.8132858,"Reno, NV",
"Philadelphia, PA",us,39.95106125,-75.1656189,"Philadelphia, PA",
"University Heights, OH",us,41.49779892,-81.53627014,"University Heights, OH",
"Waltham, MA",us,42.37617111,-71.23899078,"Waltham, MA",
"Saint Paul, MN",us,44.94371796,-93.09428406,"St Paul, MN",
"Alberquerque, NM",us,35.08424759,-106.6492386,"Albuquerque, NM",
"Evanston, IL",us,42.05215836,-87.68786621,"Evanston, IL",
"Palm Beach, FL",us,26.70432663,-80.03643799,"Palm Beach, FL",
"Inwood, NY",us,40.61867142,-73.74061584,"Inwood, NY",
"Milton, MA",us,42.24856567,-71.06918335,"Milton, MA",
"Oak Park, IL",us,41.88864899,-87.79449463,"Oak Park, IL",
"Stamford, CT",us,41.05192566,-73.53947449,"Stamford, CT",
"Ridgefield, CT",us,41.28145599,-73.49842834,"Ridgefield, CT",
"Philadelphia, PA",us,39.95106125,-75.1656189,"Philadelphia, PA",
"River Forest, IL",us,41.89404678,-87.81638336,"River Forest, IL",
"Baltimore, MD",us,39.29044342,-76.61233521,"Baltimore, MD",
"Los Angeles, CA",us,34.05223846,-118.2433472,"Los Angeles, CA",
"Rockville, MD",us,39.08417892,-77.1529007,"Rockville, MD",
"Brooklyn, NY",us,40.69252777,-73.99099731,"Brooklyn, NY",
"Durham, NC",us,35.99694824,-78.89902496,"Durham, NC",
"East Hampton , NY",us,41.00645828,-72.12792969,"East Hampton, NY",
"New Orleans, LA",us,29.95176315,-90.07461548,"New Orleans, LA",
"Arlington Heights, IL",us,42.08297729,-87.98046112,"Arlington Heights, IL",
"Highland Township, MI",us,44.11698532,-85.27092743,"Highland, MI",
"New City, NY",us,41.14741898,-73.98942566,"New City, NY",
"New York, NY",us,40.71304703,-74.00723267,"New York, NY",
"Brooklyn, NY",us,40.69252777,-73.99099731,"Brooklyn, NY",
"Hauppauge, NY",us,40.82951736,-73.19890594,"Hauppauge, NY",
"Mineola, NY",us,40.74607086,-73.63462067,"Mineola, NY",
"Philadelphia, PA",us,39.95106125,-75.1656189,"Philadelphia, PA",
"Long Island, NY",us,40.80783844,-73.25818634,"Long Island, NY",
"Staten Island, NY",us,40.64349747,-74.07620239,"Staten Island, NY",
"Northbrook, IL",us,42.13097763,-87.83155823,"Northbrook, IL",
"Las Vegas, NV",us,36.16909027,-115.1405792,"Las Vegas, NV",
"New Haven, CT",us,41.30825043,-72.92416382,"New Haven, CT",
"Billings, MT",us,45.78264999,-108.5045776,"Billings, MT",
"Ridgewood, NJ",us,40.97966766,-74.11917877,"Ridgewood, NJ",
"East Lansign, MI",us,42.74687576,-84.48369598,"East Lansing, MI",
"Scotch Plains, NJ",us,40.63311768,-74.36985779,"Scotch Plains, NJ",
"Kingston, NY",us,41.92706299,-73.99761963,"Kingston, NY",
"Roswell, GA",us,34.02165222,-84.36167145,"Roswell, GA",
"Fall River, MA",us,41.7010231,-71.15538788,"Fall River, MA",
"Sterling, VA",us,39.00166321,-77.40325165,"Sterling, VA",
"San Diego, CA",us,32.71575928,-117.1638184,"San Diego, CA",
"Bloomington, IN",us,39.16658783,-86.53488922,"Bloomington, IN",
"Reston, VA",us,38.960186,-77.35449982,"Reston, VA",
"Marshfield, MA",us,42.09193802,-70.71035767,"Marshfield, MA",
"Marshfield, MA",us,42.09193802,-70.71035767,"Marshfield, MA",
"Northbrooke Village, IL",us,42.13097763,-87.83155823,"Northbrook, IL",
"Providence, RI",us,41.82446289,-71.41275024,"Providence, RI",
"San Luis Obispo, CA",us,35.28261948,-120.6600113,"San Luis Obispo, CA",
"Rocky Point, NY",us,40.95255661,-72.9250412,"Rocky Point, NY",
"Garden City, NY",us,40.72812271,-73.63507843,"Garden City, NY",
"Baltimore, MD",us,39.29044342,-76.61233521,"Baltimore, MD",
"Longwood, FL",us,28.70455742,-81.35266113,"Longwood, FL",
"Haddam, CT",us,41.47724533,-72.51229858,"Haddam, CT",
"Westfield, NJ",us,40.64916229,-74.34325409,"Westfield, NJ",
"Boston, MA",us,42.35899353,-71.0586319,"Boston, MA",
"Delano, MN",us,45.04195023,-93.78936005,"Delano, MN",
"Rochester, NY",us,43.15570831,-77.61254883,"Rochester, NY",
"Clover, SC",us,35.11205292,-81.22776031,"Clover, SC",
"Goochland, VA",us,37.68716431,-77.88562012,"Goochland, VA",
"Sheboygan, NY",us,42.93923187,-75.62004852,New York,"Sheboygan, WI?"
"Reston, VA",us,38.960186,-77.35449982,"Reston, VA",
"College Park, MD",us,38.98719406,-76.94599915,"College Park, MD",
"Oklahoma City, OK",us,35.46849442,-97.52126312,"Oklahoma City, OK",
"Palo Alto, FL",us,27.99034309,-81.96323395,"Palo Alto, FL",
"Jacksonville, FL",us,30.32596779,-81.65676117,"Jacksonville, FL",
"Islip, NY",us,40.72902679,-73.21057892,"Islip, NY",
"Lexington, SC",us,33.98129654,-81.23836517,"Lexington, SC",
"Watson Township, MI",us,42.55527878,-85.71971893,"Watson Township, MI",
"Los Angeles, CA",us,34.05223846,-118.2433472,"Los Angeles, CA",
"Pawleys Island, SC",us,33.4238472,-79.12611389,"Pawleys Island, SC",
"San Diego, CA",us,32.71575928,-117.1638184,"San Diego, CA",
"Wellsville, NY",us,42.12069321,-77.94606018,"Wellsville, NY",
"Kenyon, MN",us,44.27203369,-92.98535919,"Kenyon, MN",
"Commack, NY",us,40.84230423,-73.30031586,"Commack, NY",
"Mandeville, LA",us,30.36217117,-90.06246948,"Mandeville, LA",
"Garden City, NY",us,40.72812271,-73.63507843,"Garden City, NY",
"Chico, CA",us,39.72895432,-121.8387756,"Chico, CA",
"Watertown, TN",us,36.09810638,-86.13359833,"Watertown, TN",
"Eugene, OR",us,44.05215454,-123.0911942,"Eugene, OR",
"Deerfield, MA",us,42.53890228,-72.60275269,"Deerfield, MA",
"Suffern, NY",us,41.11240005,-74.14980316,"Suffern, NY",
"Athens, OH",us,39.32920074,-82.10116577,"Athens, OH",
"Reading, MA",us,42.52643204,-71.10481262,"Reading, MA",
"Noblesville, IN",us,40.04560471,-86.01223755,"Noblesville, IN",
"Cambridge , MA",us,42.36524963,-71.10501862,"Cambridge, MA",
"Sparta, NJ",us,41.01628113,-74.62905121,"Sparta, NJ",
"Ann Arbor, MI",us,42.28141785,-83.74847412,"Ann Arbor, MI",
"Wrightwood, CA",us,34.35984039,-117.6305771,"Wrightwood, CA",
"Goleta, CA",us,34.43296051,-119.8568726,"Goleta, CA",
"Newbury Park, CA",us,34.1754303,-118.9336472,"Newbury Park, CA",
"Urbana, IL",us,40.11245728,-88.2074585,"Urbana, IL",
"Floyd Knobs, IA",us,42.07465744,-93.50006104,Iowa,
"Stanford, CA",us,37.43751526,-122.1657486,"Stanford, CA",
"Rochester, MN",us,44.01933289,-92.45886993,"Rochester, MN",
"Monmouth, OR",us,44.8485527,-123.2373734,"Monmouth, OR",
"Greenville, SC",us,34.85074615,-82.39896393,"Greenville, SC",
"Northhampton, MA",us,42.31951904,-72.62975311,"Northampton, MA",
"Salt Lake City, UT",us,40.75847626,-111.8881454,"Salt Lake City, UT",
"Pasadena, CA",us,34.14955139,-118.141449,"Pasadena, CA",
"Chicago, IL",us,41.8832283,-87.63240051,"Chicago, IL",
"Tampa, FL",us,27.94742393,-82.45877838,"Tampa, FL",
"Queensbury, NY",us,43.36196518,-73.64793396,"Queensbury, NY",
"Divide, CO",us,38.94203186,-105.1576309,"Divide, CO",
"Longmeadow, MA",us,42.0504837,-72.58291626,"Longmeadow, MA",
"Tyler, TX",us,32.35076141,-95.30064392,"Tyler, TX",
"Madison, WI",us,43.04048538,-89.38318634,"Madison Town, WI",
"Binghamton, NY",us,42.10221863,-75.91166687,"Binghamton, NY",
"New Haven, CT",us,41.30825043,-72.92416382,"New Haven, CT",
"Billings, MT",us,45.78264999,-108.5045776,"Billings, MT",
"Williamsburg, VA",us,37.27556229,-76.70901489,"Williamsburg, VA",
"Rockville, MD",us,39.08417892,-77.1529007,"Rockville, MD",
"Scarborough, ME",us,43.59589005,-70.32563019,"Scarborough, ME",
"Cincinatti, OH",us,39.10369873,-84.51361084,"Cincinnati, OH",
"Aspen, CO",us,39.1906662,-106.8191986,"Aspen, CO",
"Cadillac, MI",us,44.2503891,-85.39943695,"Cadillac, MI",
", NM",us,34.42136765,-106.1083908,New Mexico,
"Amherst, MA",us,42.3758049,-72.51987457,"Amherst, MA",
"Waterford, VA",us,39.19033051,-77.61819458,"Waterford, VA",
"Fairlawn, NJ",us,40.9361496,-74.13166046,"Fair Lawn, NJ",
"Bethesda, MD",us,38.98485565,-77.09268951,"Bethesda, MD",
"Hamilton, VA",us,39.13542557,-77.66654205,"Hamilton, VA",
"College Park, MD",us,38.98719406,-76.94599915,"College Park, MD",
"Worcester, MA",us,42.26211929,-71.80223846,"Worcester, MA",
"Kansas City, MO",us,39.09979248,-94.57855988,"Kansas City, MO",
"MIssouri City, TX",us,29.59618759,-95.52669525,"Missouri City, TX",
"Morristown, NJ",us,40.79663849,-74.4815979,"Morristown, NJ",
"Palos Verdes, CA",us,33.74515915,-118.4023972,"Rancho Palos Verdes, CA",
"Lexington, MA",us,42.44816971,-71.22472382,"Lexington, MA",
"Cambridge, MA",us,42.36524963,-71.10501862,"Cambridge, MA",
"Mount Laurel, NJ",us,39.95738602,-74.92539215,"Mount Laurel, NJ",
"Mineola, NY",us,40.74607086,-73.63462067,"Mineola, NY",
"Buena Park, CA",us,33.86277008,-118.0025177,"Buena Park, CA",
"Henrico, VA",us,37.51856995,-77.36262512,"Henrico, VA",
"San Francisco, CA",us,37.78007889,-122.4201584,"San Francisco, CA",
"Schodack, NY",us,42.47945404,-73.77006531,"Schodack, NY",
"Longview, WA",us,46.13851547,-122.9381332,"Longview, WA",
"Longview, WA",us,46.13851547,-122.9381332,"Longview, WA",
"Northbrooke Village, IL",us,42.13097763,-87.83155823,"Northbrook, IL",
"San Jacinto, CA",us,33.78390503,-116.9588699,"San Jacinto, CA",
"Palo Alto, CA",us,37.44510269,-122.1603622,"Palo Alto, CA",
"Lapeer, MI",us,43.05073929,-83.31860352,"Lapeer, MI",
"Summit, NJ",us,40.71797943,-74.35874176,"Summit, NJ",
"Calabasas, CA",us,34.15121078,-118.6497955,"Calabasas, CA",
"St. Johns , FL",us,30.06077766,-81.5631485,"Saint Johns, FL",
"South Orange, NJ",us,40.74577713,-74.25801849,"South Orange Village, NJ",
"Plattsburgh, NY",us,44.69966888,-73.45180511,"Plattsburgh, NY",
"Portland, OR",us,45.51601791,-122.681427,"Portland, OR",
"New York, NY",us,40.71304703,-74.00723267,"New York, NY",
"Boston, MA",us,42.35899353,-71.0586319,"Boston, MA",
"Los Angeles, CA",us,34.05223846,-118.2433472,"Los Angeles, CA",
"Alameda, CA",us,37.76533508,-122.2418747,"Alameda, CA",
"Milton, MA",us,42.24856567,-71.06918335,"Milton, MA",
"Saint Paul, MN",us,44.94371796,-93.09428406,"St Paul, MN",
"Saint Paul, MN",us,44.94371796,-93.09428406,"St Paul, MN",
"Saint Paul, MN",us,44.94371796,-93.09428406,"St Paul, MN",
"Syvania Township, OH",us,41.71560669,-83.70309448,"Sylvania, OH",
"Greenpoint, NY",us,40.72709274,-73.94673157,"Greenpoint, NY",
"Millersville, PA",us,40.00271225,-76.35626221,"Millersville, PA",
"Glen Rock, NJ",us,40.9622879,-74.12624359,"Glen Rock, NJ",
"St. Paul, NM",us,44.94371796,-93.09428406,"St Paul, MN",
"Scarsdale, MA",us,34.02199,-6.83762,Morocco,
"Eugene, OR",us,44.05215454,-123.0911942,"Eugene, OR",
"Shippensburg, PA",us,40.05060577,-77.52059937,"Shippensburg, PA",
"Methuen, MA",us,42.72985458,-71.18398285,"Methuen, MA",
"Dracut, MA",us,42.66894531,-71.30329895,"Dracut, MA",
"El Sobrante, CA",us,37.96625519,-122.3094025,"El Sobrante, CA",
"Lewisboro, NY",us,41.23817825,-73.52322388,"Lewisboro, NY",
"Westfield, NJ",us,40.64916229,-74.34325409,"Westfield, NJ",
"Exeter, PA",us,41.45218277,-75.85562134,"Exeter, PA",
"Denver, CO",us,39.73845291,-104.9848557,"Denver, CO",
"Columbia, MD",us,39.21752548,-76.86872864,"Columbia, MD",
"Rochester, NY",us,43.15570831,-77.61254883,"Rochester, NY",
"Denver, CO",us,39.73845291,-104.9848557,"Denver, CO",
"Omaha, NB",us,41.25865173,-95.93719482,"Omaha, NE",
"Woodbridge, CT",us,41.35297394,-73.01434326,"Woodbridge, CT",
"Atlanta, GA",us,33.7485466,-84.39150238,"Atlanta, GA",
"Benton, WI",us,42.57176971,-90.38492584,"Benton, WI",
"Lutherville-Timonium, MD",us,39.42629623,-76.61294556,"Lutherville, MD",
"Palo Alto, CA",us,37.44510269,-122.1603622,"Palo Alto, CA",
"Littleton, CO",us,39.61265182,-105.0161972,"Littleton, CO",
"Hackensack, NJ",us,40.88134003,-74.04380035,"Hackensack, NJ",
"New York, NY",us,40.71304703,-74.00723267,"New York, NY",
"Cleveland, OH",us,41.50554657,-81.6914978,"Cleveland, OH",
"Philadelphia, PA",us,39.95106125,-75.1656189,"Philadelphia, PA",
"Jamaica, NY",us,40.70000076,-73.80000305,"Jamaica, NY",
"Potomac, MD",us,39.02661896,-77.20392609,"Potomac, MD",
"Ashland, OR",us,42.19041824,-122.7032776,"Ashland, OR",
"Chandler , AZ",us,33.30228424,-111.8401031,"Chandler, AZ",
"Plumstead, NJ",us,40.38981628,-75.14408112,"Plumstead, PA",
"North Bay Village, FL",us,25.84457207,-80.15304565,"North Bay Village, FL",
"New York, NY",us,40.71304703,-74.00723267,"New York, NY",
"Bellingham, WA",us,48.75489807,-122.4781189,"Bellingham, WA",
"Brooklyn, NY",us,40.69252777,-73.99099731,"Brooklyn, NY",
"Silver Spring, MD",us,38.99766159,-77.02702332,"Silver Spring, MD",
"Bloomington, IA",us,41.4204483,-91.04485321,"Bloomington, IA",
"Philadelphia, PA",us,39.95106125,-75.1656189,"Philadelphia, PA",
"East Hampton, MA",us,42.2654686,-72.66902161,"Easthampton, MA",
"Happy Valley, OR",us,45.44695663,-122.530838,"Happy Valley, OR",
"Harvard, MA",us,42.49597168,-71.58235931,"Harvard, MA",
"Chicago, IL",us,41.8832283,-87.63240051,"Chicago, IL",
"Portland, OR",us,45.51601791,-122.681427,"Portland, OR",
"Burlington, VT",us,44.4759903,-73.21099854,"Burlington, VT",
"Portland, OR",us,45.51601791,-122.681427,"Portland, OR",
"Portland, OR",us,45.51601791,-122.681427,"Portland, OR",
"Philadelphia, PA",us,39.95106125,-75.1656189,"Philadelphia, PA",
"Brooklyn, NY",us,40.69252777,-73.99099731,"Brooklyn, NY",
"Milton, MA",us,42.24856567,-71.06918335,"Milton, MA",
"Wilton, CT",us,41.19443893,-73.43239594,"Wilton, CT",
"Brookeline, MA",us,42.33367538,-71.12088013,"Brookline, MA",
"Hamden, CT",us,41.38291931,-72.90774536,"Hamden, CT",
"Salem, OR",us,44.93901443,-123.0393066,"Salem, OR",
"Morristown, VT",us,44.55743027,-72.62432098,"Morristown, VT",
"Salem, OR",us,44.93901443,-123.0393066,"Salem, OR",
"Westfield, NJ",us,40.64916229,-74.34325409,"Westfield, NJ",
"Bethesda, MD",us,38.98485565,-77.09268951,"Bethesda, MD",
"Omaha, NE",us,41.25865173,-95.93719482,"Omaha, NE",
"Alfred, NY",us,42.2547226,-77.7903595,"Alfred, NY",
"Ellicott City, MD",us,39.2674675,-76.79801941,"Ellicott City, MD",
"Fairfax, CA",us,37.98688126,-122.5871429,"Fairfax, CA",
"Brookline, MA",us,42.33367538,-71.12088013,"Brookline, MA",
"Bronx, NY",us,40.8261528,-73.9202652,"Bronx, NY",
"Portland, OR",us,45.51601791,-122.681427,"Portland, OR",
"Oak Park, IL",us,41.88864899,-87.79449463,"Oak Park, IL",
"Scranton, PA",us,41.40911865,-75.66239166,"Scranton, PA",
"Sacremento, CA",us,38.57693481,-121.4949493,"Sacramento, CA",
"Oshkosh, WI",us,44.02079773,-88.54001617,"Oshkosh, WI",
"Queens, NY",us,40.75977707,-73.81729889,"Queens, NY",
"Chicago, IL",us,41.8832283,-87.63240051,"Chicago, IL",
"Queens, NY",us,40.75977707,-73.81729889,"Queens, NY",
"Ridgewood, NJ",us,40.97966766,-74.11917877,"Ridgewood, NJ",
"Ashtabula, OH",us,41.86873245,-80.78664398,"Ashtabula, OH",
"Coney Island, NY",us,40.57686234,-73.98265076,"Coney Island, NY",
"Gaithersburgh, MD",us,39.14218521,-77.19340515,"Gaithersburg, MD",
"Amherst, MA",us,42.3758049,-72.51987457,"Amherst, MA",
"Boise, ID",us,43.61579132,-116.2015762,"Boise, ID",
"Saint Paul, MN",us,44.94371796,-93.09428406,"St Paul, MN",
"Glendale, NY",us,40.7027359,-73.87110138,"Glendale, NY",
"Chicago, NY",us,41.8832283,-87.63240051,"Chicago, IL","Chicago, IL?"
"Preston, IL",us,38.83398819,-88.08386993,"Preston, IL",
"Winter Garden, FL",us,28.56511879,-81.58901215,"Winter Garden, FL",
"Thousand Oaks, CA",us,34.17608261,-118.8487396,"Thousand Oaks, CA",
"Lawrence, KS",us,38.97315598,-95.23825073,"Lawrence, KS",
"Duxbury, MA",us,42.04766464,-70.67192078,"Duxbury, MA",
"Norwalk, CT",us,41.11804962,-73.41290283,"Norwalk, CT",
"Burlington, VT",us,44.4759903,-73.21099854,"Burlington, VT",
"Amherst, MA",us,42.3758049,-72.51987457,"Amherst, MA",
"Orangevale, CA",us,38.68575287,-121.2254791,"Orangevale, CA",
"Washington, DC",us,38.89206314,-77.01991272,"Washington, DC",
"San Diego, CA",us,32.71575928,-117.1638184,"San Diego, CA",
"Reading, MA",us,42.52643204,-71.10481262,"Reading, MA",
"Cambridge, MA",us,42.36524963,-71.10501862,"Cambridge, MA",
"Huntsville, AL",us,34.72954178,-86.58530426,"Huntsville, AL",
"Merritt Island, FL",us,28.35425949,-80.70016479,"Merritt Island, FL",
"Staten Island, NY",us,40.64349747,-74.07620239,"Staten Island, NY",
"Brooklyn, NY",us,40.69252777,-73.99099731,"Brooklyn, NY",
"Oceanside, NY",us,40.64201736,-73.63394928,"Oceanside, NY",
"Edmonds, WA",us,47.8116188,-122.3766403,"Edmonds, WA",
"Saint Paul, MN",us,44.94371796,-93.09428406,"St Paul, MN",
"Woodstock, GA",us,34.10131836,-84.51937866,"Woodstock, GA",
"Atlanta, GA",us,33.7485466,-84.39150238,"Atlanta, GA",
"Lauderdale, MN",us,44.99892044,-93.20251465,"Lauderdale, MN",
"San Francisco, CA",us,37.78007889,-122.4201584,"San Francisco, CA",
"Springfield, TN",us,36.49842453,-86.88053131,"Springfield, TN",
"Cincinnati, OH",us,39.10369873,-84.51361084,"Cincinnati, OH",
"Sacramento, CA",us,38.57693481,-121.4949493,"Sacramento, CA",
"San Diego, CA",us,32.71575928,-117.1638184,"San Diego, CA",
"Hunter, OK",us,36.56264114,-97.66324615,"Hunter, OK",
"Portland, OR",us,45.51601791,-122.681427,"Portland, OR",
"San Luis Obispo, CA",us,35.28261948,-120.6600113,"San Luis Obispo, CA",
"Las Vegas, NV",us,36.16909027,-115.1405792,"Las Vegas, NV",
"Brooklyn, NY",us,40.69252777,-73.99099731,"Brooklyn, NY",
"Racine, WI",us,42.72612762,-87.78945923,"Racine, WI",
"Dacula, GA",us,33.98880386,-83.89847565,"Dacula, GA",
"Brooklyn, NY",us,40.69252777,-73.99099731,"Brooklyn, NY",
"Clarksville, MD",us,39.20381546,-76.93954468,"Clarksville, MD",
"Richlands, NC",us,34.90008926,-77.54903412,"Richlands, NC",
"San Diego, CA",us,32.71575928,-117.1638184,"San Diego, CA",
"Lansing, MI",us,42.7336235,-84.55392456,"Lansing, MI",
"Santa Ynez, CA",us,34.61140823,-120.0817566,"Santa Ynez, CA",
"Edina, MN",us,44.91048813,-93.34866333,"Edina, MN",
"Ponemah, MN",us,48.02055359,-94.91217804,"Ponemah, MN",
"Altamone Springs, FL",us,28.67040062,-81.3903656,"Altamonte Springs, FL",
"Fargo, ND",us,46.87696075,-96.78463745,"Fargo, ND",
"Fargo, ND",us,46.87696075,-96.78463745,"Fargo, ND",
"Los Angeles, CA",us,34.05223846,-118.2433472,"Los Angeles, CA",
"Champaign, IL",us,40.11632919,-88.24352264,"Champaign, IL",
"Ithaca, NY",us,42.46876526,-76.48567963,"Ithaca, NY",
"Olmstead Township, OH",us,41.37746048,-81.93113708,"Olmsted, OH",
"Silver Creek, NY",us,42.54428101,-79.16669464,"Silver Creek, NY",
"Huntington, NY",us,40.87120819,-73.42630005,"Huntington, NY",
"Washington, DC",us,38.89206314,-77.01991272,"Washington, DC",
"Chamblee, GA",us,33.88777924,-84.30396271,"Chamblee, GA",
"Lacy, NJ",us,39.83997726,-74.19116211,"Lacey, NJ",
"Miami-Dade, FL",us,25.77508354,-80.19470215,"Miami, FL",
"Missoula, MT",us,46.87212753,-113.9940186,"Missoula, MT",
"Chesnee, SC",us,35.14866257,-81.86237335,"Chesnee, SC",
"Queens, NY",us,40.75977707,-73.81729889,"Queens, NY",
"Darian, CT",us,41.08000183,-73.46736908,"Darien, CT",
"Columbus, GA",us,32.46668243,-84.99040222,"Columbus, GA",
"Sacremento, CA",us,38.57693481,-121.4949493,"Sacramento, CA",
"Jacksonville, FL",us,30.32596779,-81.65676117,"Jacksonville, FL",
"Harrison, NY",us,40.96888351,-73.71277618,"Harrison, NY",
"Seattle, WA",us,47.60322952,-122.3302765,"Seattle, WA",
"New York, NY",us,40.71304703,-74.00723267,"New York, NY",
"Summit, NJ",us,40.71797943,-74.35874176,"Summit, NJ",
"Bronx, NY",us,40.8261528,-73.9202652,"Bronx, NY",
"Lantana, FL",us,26.58456039,-80.0563736,"Lantana, FL",
"Utica, NY",us,43.10204697,-75.22999573,"Utica, NY",
"Andover, MA",us,42.65524673,-71.1396637,"Andover, MA",
"Waterville, ME",us,44.55283737,-69.63130951,"Waterville, ME",
"Cleveland, OH",us,41.50554657,-81.6914978,"Cleveland, OH",
"College Park, MD",us,38.98719406,-76.94599915,"College Park, MD",
"Hamilton, NJ",us,39.51465225,-74.77864075,"Hamilton, NJ",
"Burien, WA",us,47.46674728,-122.3472214,"Burien, WA",
"New Brunswick, NJ",us,40.49594879,-74.44412231,"New Brunswick, NJ",
"Miami Beach, FL",us,25.79223633,-80.13484955,"Miami Beach, FL",
"Millersville, PA",us,40.00271225,-76.35626221,"Millersville, PA",
"Salt Lake City, NV",us,40.75847626,-111.8881454,"Salt Lake City, UT",
"Lafayette, CA",us,37.89079666,-122.1274719,"Lafayette, CA",
"San Angelo, TX",us,31.46377945,-100.4373016,"San Angelo, TX",
"Los Angeles, CA",us,34.05223846,-118.2433472,"Los Angeles, CA",
"Lakeland, FL",us,28.04415512,-81.94896698,"Lakeland, FL",
"Dumfries, VA",us,38.56653214,-77.32874298,"Dumfries, VA",
"North Hampton, MA",us,42.31951904,-72.62975311,"Northampton, MA",
"Portland, OR",us,45.51601791,-122.681427,"Portland, OR",
"Portland, OR",us,45.51601791,-122.681427,"Portland, OR",
"Staten Island, NY",us,40.64349747,-74.07620239,"Staten Island, NY",
"Oak Park, IL",us,41.88864899,-87.79449463,"Oak Park, IL",
"Topeka, KS",us,39.0509758,-95.67043304,"Topeka, KS",
"San Luis Obispo, CA",us,35.28261948,-120.6600113,"San Luis Obispo, CA",
"Summit, NJ",us,40.71797943,-74.35874176,"Summit, NJ",
"Darian, CT",us,41.08000183,-73.46736908,"Darien, CT",
"Naples, FL",us,26.1474514,-81.7954483,"Naples, FL",
"Geneva, NY",us,42.86797333,-76.98557281,"Geneva, NY",
"Geneva, NY",us,42.86797333,-76.98557281,"Geneva, NY",
"Oak Park, IL",us,41.88864899,-87.79449463,"Oak Park, IL",
"Perinton, NY",us,43.09853363,-77.44197083,"Perinton, NY",
"Bronxville, NY",us,40.93638229,-73.83138275,"Bronxville, NY",
"West Palm Beach, FL",us,26.71443939,-80.0549469,"West Palm Beach, FL",
"Olympia, WA",us,47.03553391,-122.9008255,"Olympia, WA",
"Washington, DC",us,38.89206314,-77.01991272,"Washington, DC",
"Mt. Lebanon, PA",us,40.38011932,-80.04482269,"Mount Lebanon, PA",
"Amherst, MA",us,42.3758049,-72.51987457,"Amherst, MA",
"Coatsville, PA",us,39.98054886,-75.82135773,"Coatesville, PA",
"Eugene, OR",us,44.05215454,-123.0911942,"Eugene, OR",
"Buffalo, NY",us,42.8876915,-78.87937164,"Buffalo, NY",
"Brighton, NY",us,44.43589783,-74.25154114,"Brighton, NY",
"Mt. Lebanon, PA",us,40.38011932,-80.04482269,"Mount Lebanon, PA",
"Mt. Lebanon, PA",us,40.38011932,-80.04482269,"Mount Lebanon, PA",
"Leesburg, VA",us,39.10800171,-77.55063629,"Leesburg, VA",
"Cocoa, FL",us,28.35585976,-80.72776031,"Cocoa, FL",
"Chicago, IL",us,41.8832283,-87.63240051,"Chicago, IL",
"Denver, CO",us,39.73845291,-104.9848557,"Denver, CO",
"Des Moines, IA",us,41.58882141,-93.62030792,"Des Moines, IA",
"San Francisco, CA",us,37.78007889,-122.4201584,"San Francisco, CA",
"Syracuse , NY",us,43.04794312,-76.14744568,"Syracuse, NY",
"Abilene, TX",us,32.45357132,-99.73264313,"Abilene, TX",
"Chicago, IL",us,41.8832283,-87.63240051,"Chicago, IL",
"Concord, MA",us,42.4590416,-71.35503387,"Concord, MA",
"Eugene, OR",us,44.05215454,-123.0911942,"Eugene, OR",
"Salem, MA",us,42.52140427,-70.89864349,"Salem, MA",
"Oakpark, IL",us,41.88864899,-87.79449463,"Oak Park, IL",
"Framingham, MA",us,42.28155899,-71.41882324,"Framingham, MA",Location from the link
"Emerson, NJ",us,40.97480392,-74.02456665,"Emerson, NJ",
"Vallejo, CA",us,38.11781693,-122.2209778,"Vallejo, CA",
"Eugene, OR",us,44.05215454,-123.0911942,"Eugene, OR",
"Sammamish, WA",us,47.60548401,-122.035553,"Sammamish, WA",
"Richmond, VA",us,37.54076004,-77.43392944,"Richmond, VA",
"Geneseo, NY",us,42.80006027,-77.81584167,"Geneseo, NY",
"Baltimore, MD",us,39.29044342,-76.61233521,"Baltimore, MD",
"Baltimore, MD",us,39.29044342,-76.61233521,"Baltimore, MD",
"Baltimore, MD",us,39.29044342,-76.61233521,"Baltimore, MD",
"Baltimore, MD",us,39.29044342,-76.61233521,"Baltimore, MD",
"Baltimore, MD",us,39.29044342,-76.61233521,"Baltimore, MD",
"Phoenix, AZ",us,33.44820404,-112.0725861,"Phoenix, AZ",
"Chicago, IL",us,41.8832283,-87.63240051,"Chicago, IL",
"Louisville, KY",us,38.25607681,-85.75157166,"Louisville, KY",
"Concord, MA",us,42.4590416,-71.35503387,"Concord, MA",
"Sonora, CA",us,37.98294449,-120.3821182,"Sonora, CA",
"Geneseo, NY",us,42.80006027,-77.81584167,"Geneseo, NY",
"Atlanta, GA",us,33.7485466,-84.39150238,"Atlanta, GA",
"Fairfield, OH",us,39.33548355,-84.55966949,"Fairfield, OH",
"St. Petersburg, FL",us,27.77206993,-82.63848877,"St Petersburg, FL",
"Brunswick, ME",us,43.91667938,-69.96598816,"Brunswick, ME",
"Gastonia, NC",us,35.26215744,-81.18710327,"Gastonia, NC",
"El Paso, TX",us,31.76010704,-106.4922943,"El Paso, TX",
"Spring Valley, NV",us,36.09231949,-115.2587967,"Spring Valley, NV",
"Alberquerque, NM",us,35.08424759,-106.6492386,"Albuquerque, NM",
"Flower Mound, TX",us,33.03406525,-97.07963562,"Flower Mound, TX",
"Kansas City, KA",us,39.11270142,-94.62680054,"Kansas City, KS",
"Westford, MA",us,42.58112717,-71.4396286,"Westford, MA",
"Bonita Springs, FL",us,26.3456192,-81.77925873,"Bonita Springs, FL",
"Oklahoma City, OK",us,35.46849442,-97.52126312,"Oklahoma City, OK",
", HI",us,19.61087608,-155.5274963,Hawaii,
"Chicago, IL",us,41.8832283,-87.63240051,"Chicago, IL",
"Ringwood, NJ",us,41.08627701,-74.26293945,"Ringwood, NJ",
"Springfield, MO",us,37.21552277,-93.2923584,"Springfield, MO",
"Warren, MI",us,42.5214386,-83.02018738,"Warren, MI",
"Shawnee, OK",us,35.32740402,-96.92482758,"Shawnee, OK",
"West Linn, OR",us,45.36671829,-122.6144409,"West Linn, OR",
"Novato, CA",us,38.10918808,-122.5782547,"Novato, CA",
"Needham, MA",us,42.28094482,-71.23683929,"Needham, MA",
"Philadelphia, PA",us,39.95106125,-75.1656189,"Philadelphia, PA",
"Breckenridge, CO",us,39.4821434,-106.0486908,"Breckenridge, CO",
"Cedartown, GA",us,34.01443863,-85.25447845,"Cedartown, GA",
"Cambridge, MA",us,42.36524963,-71.10501862,"Cambridge, MA",
"Cambridge, MA",us,42.36524963,-71.10501862,"Cambridge, MA",
"Gainesville, FL",us,29.65197563,-82.32501984,"Gainesville, FL",
"Andover, MA",us,42.65524673,-71.1396637,"Andover, MA",
"Knoxville, TN",us,35.96264267,-83.91672516,"Knoxville, TN",
"Eugene, OR",us,44.05215454,-123.0911942,"Eugene, OR",
"Houston, TX",us,29.76080322,-95.36950684,"Houston, TX",
"Fredericksburg, VA",us,38.30329514,-77.46065521,"Fredericksburg, VA",
"Philadelphia, PA",us,39.95106125,-75.1656189,"Philadelphia, PA",
"Wellesley, MA",us,42.29692841,-71.29185486,"Wellesley, MA",
"Jericho, NY",us,40.78833389,-73.53575134,"Jericho, NY",
"Orange, VA",us,38.24512863,-78.11109924,"Orange, VA",
"New York, NY",us,40.71304703,-74.00723267,"New York, NY",
"Chappaqua, NY",us,41.15868378,-73.7726593,"Chappaqua, NY",
"Aberdeen, NJ",us,40.43218231,-74.2199707,"Aberdeen, NJ",
"Cathedral City, CA",us,33.83049393,-116.4668732,"Cathedral City, CA",
"Haverford, PA",us,40.00727081,-75.31762695,"Haverford, PA",
"Brooklyn, NY",us,40.69252777,-73.99099731,"Brooklyn, NY",
"Draketown, GA",us,33.82334518,-85.04412842,"Draketown, GA",
"Cambridge, NY",us,43.02773285,-73.37615967,"Cambridge, NY",
"Brooklyn, NY",us,40.69252777,-73.99099731,"Brooklyn, NY",
"Mesa, AZ",us,33.41518021,-111.8314972,"Mesa, AZ",
"Durham, NH",us,43.13395309,-70.9189682,"Durham, NH",
"Athens, OH",us,39.32920074,-82.10116577,"Athens, OH",
"Ithaca, NY",us,42.46876526,-76.48567963,"Ithaca, NY",
"Henrico, VA",us,37.51856995,-77.36262512,"Henrico, VA",
"Royal Oak, MI",us,42.4897995,-83.14428711,"Royal Oak, MI",
"Palo Alto, CA",us,37.44510269,-122.1603622,"Palo Alto, CA",
"Palo Alto, CA",us,37.44510269,-122.1603622,"Palo Alto, CA",
"Mercer Island, WA",us,47.57458496,-122.2220688,"Mercer Island, WA",
"Charlotte, NC",us,35.2237854,-80.84114075,"Charlotte, NC",
"Springfield, MO",us,37.21552277,-93.2923584,"Springfield, MO",
"Cambridge, MA",us,42.36524963,-71.10501862,"Cambridge, MA",
"Greeley, CO",us,40.42255402,-104.6944427,"Greeley, CO",
"Norwell, MA",us,42.16176224,-70.79376221,"Norwell, MA",
"Milwaukee, WI",us,43.04107285,-87.90942383,"Milwaukee, WI",
"San Jose, CA",us,37.33479309,-121.8881454,"San Jose, CA",
"Ridgewood, NJ",us,40.97966766,-74.11917877,"Ridgewood, NJ",
"Alberquerque, NM",us,35.08424759,-106.6492386,"Albuquerque, NM",
"Marblehead, MA",us,42.49574661,-70.8633194,"Marblehead, MA",
"Lewisburg, PA",us,40.96631241,-76.88493347,"Lewisburg, PA",
"Binghamton, NY",us,42.10221863,-75.91166687,"Binghamton, NY",
"Lexington, KY",us,38.0463562,-84.49702454,"Lexington, KY",
"Chicago, IL",us,41.8832283,-87.63240051,"Chicago, IL",
"Miami, FL",us,25.77508354,-80.19470215,"Miami, FL",
"Farmington, NM",us,36.74814606,-108.173378,"Farmington, NM",
"Cedarhurst, NY",us,40.62675858,-73.72797394,"Cedarhurst, NY",
"Bronx, NY",us,40.8261528,-73.9202652,"Bronx, NY",
"New York, NY",us,40.71304703,-74.00723267,"New York, NY",
"New York, NY",us,40.71304703,-74.00723267,"New York, NY",
"Joliet, IL",us,41.52495575,-88.08297729,"Joliet, IL",
"Dover, VT",us,42.93693924,-72.80910492,"Dover, VT",
"River Forest, IL",us,41.89404678,-87.81638336,"River Forest, IL",
"River Forest, IL",us,41.89404678,-87.81638336,"River Forest, IL",
"River Forest, IL",us,41.89404678,-87.81638336,"River Forest, IL",
"Hurricane, UT",us,37.17645645,-113.30056,"Hurricane, UT",
"Raleigh, NC",us,35.78130341,-78.64167786,"Raleigh, NC",
"Bridgeport, CT",us,41.1791954,-73.18947601,"Bridgeport, CT",
"Rockyford, SD",us,43.49753189,-102.5016861,"Rockyford, SD",
"Quincy, MA",us,42.25144958,-71.00228882,"Quincy, MA",
"Levittown, NY",us,40.72600555,-73.52775574,"Levittown, NY",
"Harnett County, NC",us,35.39275742,-78.8186264,Harnett County,
"Asheville, NC",us,35.59591293,-82.5500412,"Asheville, NC",
"Stamford, CT",us,41.05192566,-73.53947449,"Stamford, CT",
"Cross River, NY",us,41.26500702,-73.60923004,"Cross River, NY",
"Knoxville, TN",us,35.96264267,-83.91672516,"Knoxville, TN",
"Houston, TX",us,29.76080322,-95.36950684,"Houston, TX",
"Hartford, CT",us,41.76577377,-72.6733551,"Hartford, CT",
"Klamath Falls, OR",us,42.22491837,-121.7809525,"Klamath Falls, OR",
"Dayton, OH",us,39.76098251,-84.19219971,"Dayton, OH",
"Gainesville, FL",us,29.65197563,-82.32501984,"Gainesville, FL",
"Ridgefield, CT",us,41.28145599,-73.49842834,"Ridgefield, CT",
"Decorah, IA",us,43.30329132,-91.78833771,"Decorah, IA",
"New York, NY",us,40.71304703,-74.00723267,"New York, NY",
"Brooklyn, NY",us,40.69252777,-73.99099731,"Brooklyn, NY",
"New York, NY",us,40.71304703,-74.00723267,"New York, NY",
"Los Angeles, CA",us,34.05223846,-118.2433472,"Los Angeles, CA",
"Trenton, NJ",us,40.22057343,-74.75971222,"Trenton, NJ",
"Phoenix, AZ",us,33.44820404,-112.0725861,"Phoenix, AZ",
"Costa Mesa, CA",us,33.66385651,-117.9047623,"Costa Mesa, CA",
"Lincoln, CA",us,38.8931427,-121.2928238,"Lincoln, CA",
"Hollywood, CA",us,34.09798813,-118.3295059,"Hollywood, CA",
"Rancho Penasquitos, CA",us,32.96271515,-117.1169281,"Rancho Penasquitos, CA",
"Denver, CO",us,39.73845291,-104.9848557,"Denver, CO",
"Sarasota, FL",us,27.33651733,-82.53856659,"Sarasota, FL",
"Chandler, AZ",us,33.30228424,-111.8401031,"Chandler, AZ",
"Longmont, CO",us,40.16572952,-105.1011963,"Longmont, CO",
"Fort Kent, ME",us,47.25566483,-68.59050751,"Fort Kent, ME",
"Cedar Rapids, IA",us,41.97805405,-91.66986084,"Cedar Rapids, IA",
"Boise, ID",us,43.61579132,-116.2015762,"Boise, ID",
"Long Beach, CA",us,33.77171326,-118.1813126,"Long Beach, CA",
"Phoenix, AZ",us,33.44820404,-112.0725861,"Phoenix, AZ",
"Murfreesboro, TN",us,35.84596252,-86.39144897,"Murfreesboro, TN",
"New Milford, CT",us,41.57664871,-73.40873718,"New Milford, CT",
"Scranton, PA",us,41.40911865,-75.66239166,"Scranton, PA",
"San Francisco, CA",us,37.78007889,-122.4201584,"San Francisco, CA",
"Fairfield, CT",us,41.14332199,-73.24980927,"Fairfield, CT",
"Bakersfield, CA",us,35.37340546,-119.0189133,"Bakersfield, CA",
"Cathedral City, CA",us,33.83049393,-116.4668732,"Cathedral City, CA",
"Springfield, MO",us,37.21552277,-93.2923584,"Springfield, MO",
"Grain Valley, MO",us,39.01956558,-94.20413208,"Grain Valley, MO",
"Waterbury, CT",us,41.55426025,-73.04306793,"Waterbury, CT",
"Glenn Carbon, IL",us,38.74939346,-89.98052979,"Glen Carbon, IL",
"Clarkston, MI",us,42.73582077,-83.42214203,"Clarkston, MI",
"Toledo, OH",us,41.65529633,-83.5357132,"Toledo, OH",
"Omaha, NE",us,41.25865173,-95.93719482,"Omaha, NE",
"Lochearn, MD",us,39.34823227,-76.73265839,"Lochearn, MD",
"Ocean Grove, NJ",us,40.21075821,-74.01351166,"Ocean Grove, NJ",
"Los Angeles, CA",us,34.05223846,-118.2433472,"Los Angeles, CA",
"Chico, CA",us,39.72895432,-121.8387756,"Chico, CA",
"Sandwich, MA",us,41.75772476,-70.50013733,"Sandwich, MA",
"Mission Viejo, CA",us,33.59501648,-117.6590958,"Mission Viejo, CA",
"Reno, NV",us,39.52690125,-119.8132858,"Reno, NV",
"San Diego, CA",us,32.71575928,-117.1638184,"San Diego, CA",
"Indianapolis, IA",us,41.39704132,-92.43347931,"Indianapolis, IA",
"Indianapolis, IA",us,41.39704132,-92.43347931,"Indianapolis, IA",
"Chicago, IL",us,41.8832283,-87.63240051,"Chicago, IL",
"Bethesda, MD",us,38.98485565,-77.09268951,"Bethesda, MD",
"Oxford, MS",us,34.3667984,-89.51862335,"Oxford, MS",
"Gainesville, FL",us,29.65197563,-82.32501984,"Gainesville, FL",
"Houston, TX",us,29.76080322,-95.36950684,"Houston, TX",
"Las Vegas, NV",us,36.16909027,-115.1405792,"Las Vegas, NV",
"Cross River, NY",us,41.26500702,-73.60923004,"Cross River, NY",
"Freemont, CA",us,37.55020142,-121.9808273,"Fremont, CA",
"Lorain, OH",us,41.46826553,-82.17823029,"Lorain, OH",
"Casper, WY",us,42.85008621,-106.3252029,"Casper, WY",
"East Sandwich, MA",us,41.74020767,-70.44759369,"East Sandwich, MA",
"New Seabury, MA",us,41.57284164,-70.47370148,"New Seabury, MA",
"Lakewood, OH",us,41.47812653,-81.80484772,"Lakewood, OH",
"Madison, WI",us,43.04048538,-89.38318634,"Madison Town, WI",
"Cambridge, MA",us,42.36524963,-71.10501862,"Cambridge, MA",
"Lebanon, CT",us,41.63629532,-72.21260071,"Lebanon, CT",
"Fairfax, VA",us,38.84712219,-77.30631256,"Fairfax, VA",
"Falls Church, VA",us,38.88393402,-77.17369843,"Falls Church, VA",
"Mount Pleasant, NY",us,41.11537552,-73.81456757,"Mount Pleasant, NY",
"Ossining, NY",us,41.161026,-73.8611908,"Ossining, NY",
"Sarasota, FL",us,27.33651733,-82.53856659,"Sarasota, FL",
"Bayboro, NC",us,35.14354706,-76.76830292,"Bayboro, NC",
"Scottsdale, AZ",us,33.49490738,-111.9260635,"Scottsdale, AZ",
"Brooklyn, NY",us,40.69252777,-73.99099731,"Brooklyn, NY",
"Ashland, VA",us,37.7588768,-77.47995758,"Ashland, VA",
"Bloomington, IA",us,41.4204483,-91.04485321,"Bloomington, IA",
"Champaign, IL",us,40.11632919,-88.24352264,"Champaign, IL",
"Howell, NJ",us,40.15455627,-74.23114014,"Howell, NJ",
"Danbury, CT",us,41.39366531,-73.45153809,"Danbury, CT",
"Franconia, VA",us,38.76832962,-77.15859222,"Franconia, VA",
"Albion, MI",us,42.2480011,-84.75302124,"Albion, MI",
"Williamsburg, MA",us,42.3926506,-72.73033142,"Williamsburg, MA",
"Moonachie, NJ",us,40.84136963,-74.04628754,"Moonachie, NJ",
"Plum, PA",us,40.49419022,-79.75817871,"Plum, PA",
"Wilmington, NC",us,34.23669815,-77.94619751,"Wilmington, NC",
"Paradise Valley, AZ",us,33.53105927,-111.9431305,"Paradise Valley, AZ",
"Danville, CA",us,37.82258224,-122.0008469,"Danville, CA",
"Schenectady, NY",us,42.81422043,-73.94409943,"Schenectady, NY",
"Boca Raton, FL",us,26.35051918,-80.08982849,"Boca Raton, FL",
"Mt. Juliet, TN",us,36.20293808,-86.5245285,"Mount Juliet, TN",
"Philadelphia, PA",us,39.95106125,-75.1656189,"Philadelphia, PA",
"Huntsville, AL",us,34.72954178,-86.58530426,"Huntsville, AL",
"Middletown, PA",us,40.19916916,-76.72901154,"Middletown, PA",
"Edmonds, WA",us,47.8116188,-122.3766403,"Edmonds, WA",
"Grain Valley, MO",us,39.01956558,-94.20413208,"Grain Valley, MO",
"Lakeville, MN",us,44.65598679,-93.24274445,"Lakeville, MN",
"Gainesville, FL",us,29.65197563,-82.32501984,"Gainesville, FL",
"Durango, CO",us,37.28224945,-107.8777618,"Durango, CO",
"Los Angeles, CA",us,34.05223846,-118.2433472,"Los Angeles, CA",
"Greenwood, IA",us,43.29295731,-94.2179718,"Greenwood, IA",
"Brooklyn, NY",us,40.69252777,-73.99099731,"Brooklyn, NY",
"Jacksonville, FL",us,30.32596779,-81.65676117,"Jacksonville, FL",
"Springfield, MO",us,37.21552277,-93.2923584,"Springfield, MO",
"Vienna Township, MI",us,43.17764282,-83.7552948,"Vienna, MI",
"Randolph, MA",us,42.1625824,-71.04132843,"Randolph, MA",
"New York, NY",us,40.71304703,-74.00723267,"New York, NY",
"Centereach, NY",us,40.85834885,-73.10367584,"Centereach, NY",
"Freemont, CA",us,37.55020142,-121.9808273,"Fremont, CA",
"Brooklyn, NY",us,40.69252777,-73.99099731,"Brooklyn, NY",
"Kent, OH",us,41.15483475,-81.35638428,"Kent, OH",
"Strasburg, Va",us,38.98848343,-78.35883331,"Strasburg, VA",
"Torrance, CA",us,33.83633041,-118.3400345,"Torrance, CA",
"New York, NY",us,40.71304703,-74.00723267,"New York, NY",
"Lacey, NJ",us,39.83997726,-74.19116211,"Lacey, NJ",
"San Francisco, CA",us,37.78007889,-122.4201584,"San Francisco, CA",
"Milton, PA",us,41.01183319,-76.84637451,"Milton, PA",
"Acworth, GA",us,34.07365417,-84.67710114,"Acworth, GA",
"Gainesville, VA",us,38.79195404,-77.60984802,"Gainesville, VA",
"Troy Township, PA",us,41.76937485,-76.73221588,"Troy Township, PA",
"Marriotsville, MD",us,39.32133102,-76.92776489,"Marriottsville, MD",
"Splendora, TX",us,30.22687721,-95.16641235,"Splendora, TX",
"Rock Valley, IA",us,43.19997025,-96.29801178,"Rock Valley, IA",
"Falmouth, MA",us,41.55260086,-70.61717987,"Falmouth, MA",
"Las Vegas, NV",us,36.16909027,-115.1405792,"Las Vegas, NV",
"Purcellville, VA",us,39.13674164,-77.71450043,"Purcellville, VA",
"Montclair, NJ",us,40.82216644,-74.21266174,"Montclair, NJ",
"Olean, NY",us,42.06181335,-78.42311859,"Olean, NY",
"Holly, MI",us,42.79189301,-83.6276474,"Holly, MI",
"Fresno, CA",us,36.73165512,-119.7858582,"Fresno, CA",
"Waldo, ME",us,44.51236725,-69.07609558,"Waldo, ME",
"Brigham City , UT",us,41.51037216,-112.0157166,"Brigham City, UT",
"Merrick, NY",us,40.66632843,-73.55324554,"Merrick, NY",
"Ankeny, IA",us,41.72507858,-93.60041046,"Ankeny, IA",
"Tacoma Park, MD",us,38.98103714,-77.01029968,"Takoma Park, MD",
"Shoreline, WA",us,47.75598526,-122.3389282,"Shoreline, WA",
"Morgan Hill, CA",us,37.12927246,-121.6564102,"Morgan Hill, CA",
"Durham, NC",us,35.99694824,-78.89902496,"Durham, NC",
"Purchase, NY",us,41.033741,-73.71352386,"Purchase, NY",
"Esperance, NY",us,42.76084137,-74.25653076,"Esperance, NY",
"Nashville, TN",us,36.1663475,-86.77905273,"Nashville, TN",
"Warwick, MA",us,42.68193436,-72.33863831,"Warwick, MA",
"Fairfax, VA",us,38.84712219,-77.30631256,"Fairfax, VA",
"Freemont, CA",us,37.55020142,-121.9808273,"Fremont, CA",
"Arlington, MA",us,42.41624832,-71.15666962,"Arlington, MA",
"Crystal Lake, IL",us,42.23174667,-88.3335495,"Crystal Lake, IL",
"Antioch, CA",us,38.01690674,-121.8137741,"Antioch, CA",
"Los Angeles, CA",us,34.05223846,-118.2433472,"Los Angeles, CA",
"Missoula , MT",us,46.87212753,-113.9940186,"Missoula, MT",
"San Dimas, CA",us,34.10667801,-117.8027496,"San Dimas, CA",
"Chico, CA",us,39.72895432,-121.8387756,"Chico, CA",
"Minneapolis, MN",us,44.97748566,-93.26436615,"Minneapolis, MN",
"Cortland, NY",us,42.60121155,-76.18048096,"Cortland, NY",
"Jamaica Plain, MA",us,42.31087494,-71.12506104,"Jamaica Plain, MA",
"Orchard Park, NY",us,42.76745605,-78.74390411,"Orchard Park, NY",
"Philadelphia, PA",us,39.95106125,-75.1656189,"Philadelphia, PA",
"Warminster, PA",us,40.20507813,-75.09693909,"Warminster, PA",
"Craig, CO",us,40.5124054,-107.5472412,"Craig, CO",
"Portland, OR",us,45.51601791,-122.681427,"Portland, OR",
"Elizabethton, TN",us,36.34389496,-82.24970245,"Elizabethton, TN",
"Austin, TX",us,30.26497841,-97.74659729,"Austin, TX",
"Boynton Beach, FL",us,26.52891159,-80.06417084,"Boynton Beach, FL",
"Torrington, CT",us,41.81218719,-73.10157013,"Torrington, CT",
"Brooklyn, NY",us,40.69252777,-73.99099731,"Brooklyn, NY",
"East Falmouth, MA",us,41.57853699,-70.55893707,"East Falmouth, MA",
"Manistee, MI",us,44.24581528,-86.31959534,"Manistee, MI",
"Bakersfield, CA",us,35.37340546,-119.0189133,"Bakersfield, CA",
"Miami, FL",us,25.77508354,-80.19470215,"Miami, FL",
"Chicago, IL",us,41.8832283,-87.63240051,"Chicago, IL",
"Madison, WI",us,43.04048538,-89.38318634,"Madison Town, WI",
"Woodbridge, VA",us,38.66353226,-77.24559784,"Woodbridge, VA",
"Cross River, NY",us,41.26500702,-73.60923004,"Cross River, NY",
"Jackson, MI",us,42.2474556,-84.40884399,"Jackson, MI",
"Falmouth, MA",us,41.55260086,-70.61717987,"Falmouth, MA",
"Port Washington, NY",us,40.83086777,-73.68417358,"Port Washington, NY",
"Citrus Heights, CA",us,38.67735672,-121.3006287,"Citrus Heights, CA",
"Cincinatti, OH",us,39.10369873,-84.51361084,"Cincinnati, OH",
"Phoenix, AZ",us,33.44820404,-112.0725861,"Phoenix, AZ",
"Denver, CO",us,39.73845291,-104.9848557,"Denver, CO",
"Oakland, CA",us,37.80482864,-122.2724762,"Oakland, CA",
"Oakland, CA",us,37.80482864,-122.2724762,"Oakland, CA",
"Huntsville, AL",us,34.72954178,-86.58530426,"Huntsville, AL",
"Columbus , OH",us,39.96276093,-82.99629211,"Columbus, OH",
"Washington, DC",us,38.89206314,-77.01991272,"Washington, DC",
"Ashburn, VA",us,39.04276657,-77.48581696,"Ashburn, VA",
"Los Angeles, CA",us,34.05223846,-118.2433472,"Los Angeles, CA",
"Cleveland, TN",us,35.15986633,-84.87550354,"Cleveland, TN",
"Cincinatti, OH",us,39.10369873,-84.51361084,"Cincinnati, OH",
"Penfield, NY",us,43.13007736,-77.47587585,"Penfield, NY",
"Port Washington, WI",us,43.38742065,-87.87589264,"Port Washington, WI",
"Pullman, WA",us,46.72972488,-117.1818314,"Pullman, WA",
"Miami, FL",us,25.77508354,-80.19470215,"Miami, FL",
"Lincoln, NB",us,40.81359863,-96.7026062,"Lincoln, NE",
"Charlevoix, MI",us,45.31479263,-85.2587204,"Charlevoix, MI",
"El Cajon, CA",us,32.80089569,-116.9614258,"El Cajon, CA",
"El Cajon, CA",us,32.80089569,-116.9614258,"El Cajon, CA",
"Newton, PA",us,41.48232269,-75.76654053,"Newton, PA",
"Newton, PA",us,41.48232269,-75.76654053,"Newton, PA",
"Gaithersburg, MD",us,39.14218521,-77.19340515,"Gaithersburg, MD",
"Fitchburg, MA",us,42.58080673,-71.7959671,"Fitchburg, MA",
"Aurora, CO",us,39.71293259,-104.8193588,"Aurora, CO",
"Sacramento, CA",us,38.57693481,-121.4949493,"Sacramento, CA",
"Salem, MA",us,42.52140427,-70.89864349,"Salem, MA",
"Chicago, IL",us,41.8832283,-87.63240051,"Chicago, IL",
"Sacramento, CA",us,38.57693481,-121.4949493,"Sacramento, CA",
"Boston, MA",us,42.35899353,-71.0586319,"Boston, MA",
"Portland, OR",us,45.51601791,-122.681427,"Portland, OR",
"Reading, PA",us,40.33691788,-75.92196655,"Reading, PA",
"Council Bluffs, IA",us,41.25896454,-95.85436249,"Council Bluffs, IA",
"Bailey, CO",us,34.22871399,-102.7278976,"Bailey, Colombia",
"Cleveland, OH",us,41.50554657,-81.6914978,"Cleveland, OH",
"Tulsa, OK",us,36.15532684,-95.99208069,"Tulsa, OK",
"Steamboat Springs, CO",us,40.48548889,-106.8335571,"Steamboat Springs, CO",
"Coto de Caza, CA",us,33.57385254,-117.5907516,"Coto de Caza, CA",
"Needham, MA",us,42.28094482,-71.23683929,"Needham, MA",
"Buffalo Township, PA",us,40.71102524,-79.77714539,"Buffalo, PA",
"Norwell, MA",us,42.16176224,-70.79376221,"Norwell, MA",
"Scriba, NY",us,43.4711647,-76.43195343,"Scriba, NY",
"Long Beach, CA",us,33.77171326,-118.1813126,"Long Beach, CA",
"Iowa City, NY",us,41.66123962,-91.53012848,"Iowa City, IA","Iowa City, IA?"
"Colorado Springs, CO",us,38.83522415,-104.8198013,"Colorado Springs, CO",
"Santa Cruz, CA",us,36.97414017,-122.028801,"Santa Cruz, CA",
"Altamonte Springs, FL",us,28.67040062,-81.3903656,"Altamonte Springs, FL",
"Las Vegas, NV",us,36.16909027,-115.1405792,"Las Vegas, NV",
"Osceola, FL",us,28.00200081,-82.45429993,"Osceola, FL",
"St. Paul, MN",us,44.94371796,-93.09428406,"St Paul, MN",
"Seattle, WA",us,47.60322952,-122.3302765,"Seattle, WA",
"Washington, DC",us,38.89206314,-77.01991272,"Washington, DC",
"Saratoga Springs, NY",us,43.08323288,-73.78476715,"Saratoga Springs, NY",
"Branford, CT",us,41.27980042,-72.81404114,"Branford, CT",
"Danbury, CT",us,41.39366531,-73.45153809,"Danbury, CT",
"South Orange, NJ",us,40.74577713,-74.25801849,"South Orange Village, NJ",
"Chicago, IL",us,41.8832283,-87.63240051,"Chicago, IL",
"Mission Viejo, CA",us,33.59501648,-117.6590958,"Mission Viejo, CA",
"Princeton, NJ",us,40.3519783,-74.66074371,"Princeton, NJ",
"Tallahassee, FL",us,30.44074059,-84.27832794,"Tallahassee, FL",
"Westminster, CO",us,39.86351395,-105.0411224,"Westminster, CO",
"Houstonville, NC",us,36.00361633,-80.77469635,"Houstonville, NC",
"Phoenix, AZ",us,33.44820404,-112.0725861,"Phoenix, AZ",
"Las Vegas, NV",us,36.16909027,-115.1405792,"Las Vegas, NV",
"New York, NY",us,40.71304703,-74.00723267,"New York, NY",
"Washington, DC",us,38.89206314,-77.01991272,"Washington, DC",
"West Deer, PA",us,40.61177826,-79.835289,"West Deer, PA",
"Staten Island, NY",us,40.64349747,-74.07620239,"Staten Island, NY",
"Bowie, MD",us,38.9435463,-76.73027802,"Bowie, MD",
"New Brunswick, NJ",us,40.49594879,-74.44412231,"New Brunswick, NJ",
"San Anselmo, CA",us,37.97537613,-122.5618362,"San Anselmo, CA",
"Jackson, NJ",us,40.13329315,-74.38461304,"Jackson, NJ",
"Ithaca, NY",us,42.46876526,-76.48567963,"Ithaca, NY",
"Pittsburgh, PA",us,40.44216919,-79.99495697,"Pittsburgh, PA",
"Madison, WI",us,43.04048538,-89.38318634,"Madison Town, WI",
"Westlake, OH",us,41.45975113,-81.92179871,"Westlake, OH",
"New York, NY",us,40.71304703,-74.00723267,"New York, NY",
"Wichita, KS",us,37.68602371,-97.33557129,"Wichita, KS",
"Detroit, MI",us,42.33293915,-83.0478363,"Detroit, MI",
"Ellsworth, ME",us,44.5411644,-68.42502594,"Ellsworth, ME",
"Hampton, NJ",us,40.71027374,-74.96608734,"Hampton, NJ",
"Indianapolis, IA",us,41.39704132,-92.43347931,"Indianapolis, IA",
"Fruita, CO",us,39.15450287,-108.7301941,"Fruita, CO",
"Elk Grove, CA",us,38.41813278,-121.3932571,"Elk Grove, CA",
"Orlando, FL",us,28.53833008,-81.37887573,"Orlando, FL",
"Bakersfield, CA",us,35.37340546,-119.0189133,"Bakersfield, CA",
"Cambridge, MA",us,42.36524963,-71.10501862,"Cambridge, MA",
"Reston, VA",us,38.960186,-77.35449982,"Reston, VA",
"Washington, DC",us,38.89206314,-77.01991272,"Washington, DC",
"Easton, MA",us,42.02978897,-71.1314621,"Easton Center, MA",
"Kensington, MD",us,39.02770233,-77.07806396,"Kensington, MD",
"San Diego, CA",us,32.71575928,-117.1638184,"San Diego, CA",
"Tulsa, OK",us,36.15532684,-95.99208069,"Tulsa, OK",
"Newton, CT",us,41.41405869,-73.3037262,"Newtown, CT",
"Southington, CT",us,41.60042953,-72.87810516,"Southington, CT",
"Syracuse , NY",us,43.04794312,-76.14744568,"Syracuse, NY",
"New Rochelle, NY",us,40.9115448,-73.78233337,"New Rochelle, NY",
"New Rochelle, NY",us,40.9115448,-73.78233337,"New Rochelle, NY",
"Reno, NV",us,39.52690125,-119.8132858,"Reno, NV",
"Reno, NV",us,39.52690125,-119.8132858,"Reno, NV",
"Sleepy Hollow, NY",us,41.10479355,-73.86558533,"Sleepy Hollow, NY",
"Pheonix, AZ",us,33.44820404,-112.0725861,"Phoenix, AZ",
"Somers, CT",us,41.98552322,-72.44750214,"Somers, CT",
"Pehlam, MA",us,42.39214325,-72.40349579,"Pelham, MA",
Zoom,us,27.14953232,88.26142883,"Zoom, India","Via Zoom, no geolocation"
"Brooklyn, NY",us,40.69252777,-73.99099731,"Brooklyn, NY",
"Houston, TX",us,29.76080322,-95.36950684,"Houston, TX",
"Trenton, NJ",us,40.22057343,-74.75971222,"Trenton, NJ",
"Haverford, PA",us,40.00727081,-75.31762695,"Haverford, PA",
"Indianapolis, IN",us,39.76845169,-86.15621185,"Indianapolis, IN",
"Batlimore, MD",us,39.29044342,-76.61233521,"Baltimore, MD",
"Brooklyn, NY",us,40.69252777,-73.99099731,"Brooklyn, NY",
"Ann Arbor, MI",us,42.28141785,-83.74847412,"Ann Arbor, MI",
"Ridgfield, CT",us,41.28145599,-73.49842834,"Ridgefield, CT",
"Rochester, NY",us,43.15570831,-77.61254883,"Rochester, NY",
"Denver, CO",us,39.73845291,-104.9848557,"Denver, CO",
"New York, NY",us,40.71304703,-74.00723267,"New York, NY",
"El Sobrante, CA",us,37.96625519,-122.3094025,"El Sobrante, CA",
"Ulysses, PA",us,41.90372086,-77.76229858,"Ulysses, PA",
"Geneva, NY",us,42.86797333,-76.98557281,"Geneva, NY",
"Salt Lake City, UT",us,40.75847626,-111.8881454,"Salt Lake City, UT",
"Henryville, IN",us,38.53620529,-85.76586914,"Henryville, IN",
"Philidelphia, PA",us,39.95106125,-75.1656189,"Philadelphia, PA",
"Urbana, IL",us,40.11245728,-88.2074585,"Urbana, IL",
"Oakland, CA",us,37.80482864,-122.2724762,"Oakland, CA",
"Maple Grove, MN",us,45.09812164,-93.4445343,"Maple Grove, MN",
"Selinsgrove, PA",us,40.80105591,-76.86623383,"Selinsgrove, PA",
"New York, NY",us,40.71304703,-74.00723267,"New York, NY",
"New York, NY",us,40.71304703,-74.00723267,"New York, NY",
"Palm Coast, FL",us,29.58224678,-81.21491241,"Palm Coast, FL",
"Gaithersburg, MD",us,39.14218521,-77.19340515,"Gaithersburg, MD",
"Allentown, PA",us,40.60275269,-75.46975708,"Allentown, PA",
"Berkley, CA",us,37.8690567,-122.270462,"Berkeley, CA",
"Newton, MA",us,42.33802795,-71.21157837,"Newton, MA",
"Westwood, MA",us,42.22499084,-71.22260284,"Westwood, MA",
"Belmont, CA",us,37.50853729,-122.291954,"Belmont, CA",
"Canton, MA",us,42.15893173,-71.1449585,"Canton, MA",
"Seattle, WA",us,47.60322952,-122.3302765,"Seattle, WA",
"Plano, IL",us,41.6615181,-88.53447723,"Plano, IL",
"Durham, NH",us,43.13395309,-70.9189682,"Durham, NH",
"Oradell, NJ",us,40.95336533,-74.0317688,"Oradell, NJ",
"Duxbury, MA",us,42.04766464,-70.67192078,"Duxbury, MA",
"Duxbury, MA",us,42.04766464,-70.67192078,"Duxbury, MA",
"Tempe, AZ",us,33.42552185,-111.9412537,"Tempe, AZ",
"Urbana, IL",us,40.11245728,-88.2074585,"Urbana, IL",
"Williamstown, MA",us,42.71234894,-73.20380402,"Williamstown, MA",
"West Lafayette, IN",us,40.45475388,-86.91569519,"West Lafayette, IN",
"Wellesley, MA",us,42.29692841,-71.29185486,"Wellesley, MA",
"Kansas City, MO",us,39.09979248,-94.57855988,"Kansas City, MO",
"Berkley, CA",us,37.8690567,-122.270462,"Berkeley, CA",
"Reno, NV",us,39.52690125,-119.8132858,"Reno, NV",
"Rockland, MA",us,42.12633896,-70.91641998,"Rockland, MA",
"Canton, MI",us,42.29969025,-83.48679352,"Canton, MI",
"Princeton, NJ",us,40.3519783,-74.66074371,"Princeton, NJ",
"Dedham, MA",us,42.24656677,-71.17429352,"Dedham, MA",
"Potomac, MD",us,39.02661896,-77.20392609,"Potomac, MD",
"Wellesley, MA",us,42.29692841,-71.29185486,"Wellesley, MA",
"Dallas, TX",us,32.77797699,-96.79621124,"Dallas, TX",
"Buellton, CA",us,34.61510849,-120.1941223,"Buellton, CA",
"Cross River, NY",us,41.26500702,-73.60923004,"Cross River, NY",
"Cross River, NY",us,41.26500702,-73.60923004,"Cross River, NY",
"Phoenix, AZ",us,33.44820404,-112.0725861,"Phoenix, AZ",
"Hartford, CT",us,41.76577377,-72.6733551,"Hartford, CT",
"Waterville, ME",us,44.55283737,-69.63130951,"Waterville, ME",
"Cincinnati, OH",us,39.10369873,-84.51361084,"Cincinnati, OH",
"Walla Walla, WA",us,46.06555176,-118.3336411,"Walla Walla, WA",
"Wantagh, NY",us,40.6709404,-73.51049805,"Wantagh, NY",
"Toledo, OH",us,41.65529633,-83.5357132,"Toledo, OH",
"Needham, MA",us,42.28094482,-71.23683929,"Needham, MA",
"Carmel, IA",us,43.12762833,-96.23513031,"Carmel, IA",
"Ulysses, PA",us,41.90372086,-77.76229858,"Ulysses, PA",
"Mobile, AL",us,30.68894386,-88.04482269,"Mobile, AL",
"St. Paul, MN",us,44.94371796,-93.09428406,"St Paul, MN",
"Durham, NC",us,35.99694824,-78.89902496,"Durham, NC",
"Stowe, VT",us,44.46533585,-72.68430328,"Stowe, VT",
"Bronx, NY",us,40.8261528,-73.9202652,"Bronx, NY",
"Indianapolis, IN",us,39.76845169,-86.15621185,"Indianapolis, IN",
"Chicago, IL",us,41.8832283,-87.63240051,"Chicago, IL",
"Montvale, NJ",us,41.04013824,-74.03270721,"Montvale, NJ",
"Ridgewood, NJ",us,40.97966766,-74.11917877,"Ridgewood, NJ",
"Waterville, MN",us,44.21889114,-93.56776428,"Waterville, MN",
"Searington, NY",us,40.76860809,-73.66439819,"Searingtown, NY",
"New York, NY",us,40.71304703,-74.00723267,"New York, NY",
"New Rochelle, NY",us,40.9115448,-73.78233337,"New Rochelle, NY",
"Oak Park, IL",us,41.88864899,-87.79449463,"Oak Park, IL",
"Sacremento, CA",us,38.57693481,-121.4949493,"Sacramento, CA",
"Foxborough, MA",us,42.06322479,-71.2505188,"Foxborough, MA",
"Westwood, MA",us,42.22499084,-71.22260284,"Westwood, MA",
"Las Vegas, NV",us,36.16909027,-115.1405792,"Las Vegas, NV",
"Sharon, MA",us,42.12367249,-71.17893219,"Sharon, MA",
"Newton, MA",us,42.33802795,-71.21157837,"Newton, MA",
"San Francisco, CA",us,37.78007889,-122.4201584,"San Francisco, CA",
"Glen Rock, NJ",us,40.9622879,-74.12624359,"Glen Rock, NJ",
"Wellesley, VA",us,37.51290894,-78.69762421,Virginia,
"Cochecton, NY",us,41.65987396,-74.9810257,"Cochecton, NY",
"Narrowsburg, NY",us,41.60395813,-75.05156708,"Narrowsburg, NY",
"Jamestown, NY",us,42.09896088,-79.24205017,"Jamestown, NY",
"Reno, NV",us,39.52690125,-119.8132858,"Reno, NV",
"Alpena, MI",us,45.06065369,-83.43145752,"Alpena, MI",
"Westport, CT",us,41.14044189,-73.35317993,"Westport, CT",
"Scarsdale, NY",us,40.98873138,-73.79658508,"Scarsdale, NY",
"Darian, CT",us,41.08000183,-73.46736908,"Darien, CT",
"Fort Collins, CO",us,40.58897018,-105.0824585,"Fort Collins, CO",
"Mercer Island, WA",us,47.57458496,-122.2220688,"Mercer Island, WA",
"Milton, PA",us,41.01183319,-76.84637451,"Milton, PA",
"Pelham, NY",us,40.91407013,-73.8082962,"Pelham, NY",
"Athens, GA",us,33.95741272,-83.37680054,"Athens, GA",
"Urbana, IL",us,40.11245728,-88.2074585,"Urbana, IL",
"Reno, NV",us,39.52690125,-119.8132858,"Reno, NV",
"Darian, CT",us,41.08000183,-73.46736908,"Darien, CT",
"Reno, NV",us,39.52690125,-119.8132858,"Reno, NV",
"Norton, MA",us,41.96720505,-71.18852997,"Norton, MA",
"Edgewater, MD",us,38.93804932,-76.55982971,"Edgewater, MD",
"Darian, CT",us,41.08000183,-73.46736908,"Darien, CT",
"Glastonbury, CT",us,41.70761871,-72.60803986,"Glastonbury, CT",
"Tempe, AZ",us,33.42552185,-111.9412537,"Tempe, AZ",
"Renton, WA",us,47.47465897,-122.2067871,"Renton, WA",
"Athens, GA",us,33.95741272,-83.37680054,"Athens, GA",
"Bethesda, MD",us,38.98485565,-77.09268951,"Bethesda, MD",
"East Hampton , NY",us,41.00645828,-72.12792969,"East Hampton, NY",
"Ames, IA",us,42.02680206,-93.62017822,"Ames, IA",
"Queens, NY",us,40.75977707,-73.81729889,"Queens, NY",
"Milledgeville, GA",us,33.08024216,-83.23205566,"Milledgeville, GA",
"Kensington, MD",us,39.02770233,-77.07806396,"Kensington, MD",
"Kensington, MD",us,39.02770233,-77.07806396,"Kensington, MD",
"Norton, MA",us,41.96720505,-71.18852997,"Norton, MA",
"Huntington, WV",us,38.4191246,-82.44522095,"Huntington, WV",
"Worcester, MA",us,42.26211929,-71.80223846,"Worcester, MA",
"Santa Ynez, CA",us,34.61140823,-120.0817566,"Santa Ynez, CA",
"Montclair, NJ",us,40.82216644,-74.21266174,"Montclair, NJ",
"New York, NY",us,40.71304703,-74.00723267,"New York, NY",
"Billerica, MA",us,42.56367111,-71.27111816,"Billerica, MA",
"Arlington, VA",us,38.89076233,-77.08475494,"Arlington, VA",
"Washington, DC",us,38.89206314,-77.01991272,"Washington, DC",
"Clarkstown, NY",us,41.14113998,-73.99050903,"Clarkstown, NY",
"Sacramento, CA",us,38.57693481,-121.4949493,"Sacramento, CA",
"Urbana, IL",us,40.11245728,-88.2074585,"Urbana, IL",
"Columbia, SC",us,34.00928497,-81.03709412,"Columbia, SC",
"Edmunds, WA",us,47.8116188,-122.3766403,"Edmonds, WA",
Zoom,us,27.14953232,88.26142883,"Zoom, India","Via Zoom, no geolocation"
"State College, PA",us,40.78967667,-77.85805511,"State College, PA",
"Key Biscayne, FL",us,25.69249725,-80.16955566,"Key Biscayne, FL",
"Bangor, ME",us,44.80160141,-68.77133179,"Bangor, ME",
"Athens, OH",us,39.32920074,-82.10116577,"Athens, OH",
"Sandy, UT",us,40.56970596,-111.8972855,"Sandy, UT",
"Montour Falls, NY",us,42.34711838,-76.8451004,"Montour Falls, NY",
"Jacksonville, FL",us,30.32596779,-81.65676117,"Jacksonville, FL",
"Amherst, MA",us,42.3758049,-72.51987457,"Amherst, MA",
"Kingston, PA",us,41.26886749,-75.89061737,"Kingston, PA",
"Miami, FL",us,25.77508354,-80.19470215,"Miami, FL",
"Princeton, NJ",us,40.3519783,-74.66074371,"Princeton, NJ",
"Brooklyn, NY",us,40.69252777,-73.99099731,"Brooklyn, NY",
"Duxbury, MA",us,42.04766464,-70.67192078,"Duxbury, MA",
"Los Angeles, CA",us,34.05223846,-118.2433472,"Los Angeles, CA",
"Fort Smith, AK",us,35.38663483,-94.42435455,"Fort Smith, AR",
"Seattle, WA",us,47.60322952,-122.3302765,"Seattle, WA",
"Fairless Hills, PA",us,40.17782211,-74.8544693,"Fairless Hills, PA",
"Mineola, NY",us,40.74607086,-73.63462067,"Mineola, NY",
"Raritan, NJ",us,40.56786728,-74.6326828,"Raritan, NJ",
"Washington, DC",us,38.89206314,-77.01991272,"Washington, DC",
"Fredericksburg, VA",us,38.30329514,-77.46065521,"Fredericksburg, VA",
"Los Angeles, CA",us,34.05223846,-118.2433472,"Los Angeles, CA",
"Brooklyn, NY",us,40.69252777,-73.99099731,"Brooklyn, NY",
"Los Angeles, CA",us,34.05223846,-118.2433472,"Los Angeles, CA",
"Seattle, WA",us,47.60322952,-122.3302765,"Seattle, WA",
"Hermosa Beach, CA",us,33.86349869,-118.3951492,"Hermosa Beach, CA",
"Philadelphia, PA",us,39.95106125,-75.1656189,"Philadelphia, PA",
"Costa Mesa, CA",us,33.66385651,-117.9047623,"Costa Mesa, CA",
"Reading, MA",us,42.52643204,-71.10481262,"Reading, MA",
"Highlands, NJ",us,40.40142441,-73.98661041,"Highlands, NJ",
"Grand Rapids, MI",us,42.96546173,-85.67017365,"Grand Rapids, MI",
"Atlanta, GA",us,33.7485466,-84.39150238,"Atlanta, GA",
"Lafayette, CO",us,39.99427414,-105.0904541,"Lafayette, CO",
"Princeton, NJ",us,40.3519783,-74.66074371,"Princeton, NJ",
"Long Beach, CA",us,33.77171326,-118.1813126,"Long Beach, CA",
"Seattle, WA",us,47.60322952,-122.3302765,"Seattle, WA",
"Durango, CO",us,37.28224945,-107.8777618,"Durango, CO",
"Washington, DC",us,38.89206314,-77.01991272,"Washington, DC",
"Monmouth, ME",us,44.24132538,-70.03475189,"Monmouth, ME",
"Lorton, VA",us,38.69286346,-77.21853638,"Lorton, VA",
"New York, NY",us,40.71304703,-74.00723267,"New York, NY",
"Saint Paul, MN",us,44.94371796,-93.09428406,"St Paul, MN",
"Dallas, TX",us,32.77797699,-96.79621124,"Dallas, TX",
"Manchester, MI",us,42.1504097,-84.03764343,"Manchester, MI",
"Oklahoma City, OK",us,35.46849442,-97.52126312,"Oklahoma City, OK",
"Greenwood, IA",us,43.29295731,-94.2179718,"Greenwood, IA",
"Fort Wayne, IN",us,41.07747269,-85.13749695,"Fort Wayne, IN",
"Redding, CT",us,41.30413055,-73.37992096,"Redding, CT",
"Wooster, OH",us,40.79817963,-81.93994904,"Wooster, OH",
"Iowa City, IA",us,41.66123962,-91.53012848,"Iowa City, IA",
"Kansas City, KS",us,39.11270142,-94.62680054,"Kansas City, KS",
"Newark, NJ",us,40.73150635,-74.17438507,"Newark, NJ",
"Kingston, RI",us,41.47999573,-71.52317047,"Kingston, RI",
"Wantagh, NY",us,40.6709404,-73.51049805,"Wantagh, NY",
"Copperas Cove, TX",us,31.11503983,-97.90548706,"Copperas Cove, TX",
"Lexington, MA",us,42.44816971,-71.22472382,"Lexington, MA",
"Guilderland, NY",us,42.70431519,-73.91165161,"Guilderland, NY",
"Tomball, TX",us,30.09720612,-95.61600494,"Tomball, TX",
"College Park, MD",us,38.98719406,-76.94599915,"College Park, MD",
"Mt. Zion, IL",us,39.77667618,-88.87043762,"Mount Zion, IL",
"Saint Paul, MN",us,44.94371796,-93.09428406,"St Paul, MN",
"Stamford, CT",us,41.05192566,-73.53947449,"Stamford, CT",
"Harrisburgh, PA",us,40.25959396,-76.88187408,"Harrisburg, PA",
"Burlington, MA",us,42.50498581,-71.1958313,"Burlington, MA",
"Ojai, CA",us,34.44796753,-119.242981,"Ojai, CA",
"Surfside, FL",us,25.87971115,-80.12550354,"Surfside, FL",
"White Sulpher Springs, NY",us,41.80501175,-74.83989716,"White Sulphur Springs, NY",
"Marysville, PA",us,40.34349442,-76.92983246,"Marysville, PA",
"Aldie, VA",us,38.97546768,-77.64055634,"Aldie, VA",
"Phoenix, AZ",us,33.44820404,-112.0725861,"Phoenix, AZ",
"Brooklyn, NY",us,40.69252777,-73.99099731,"Brooklyn, NY",
"Normal, IL",us,40.51808929,-88.99507141,"Normal, IL",
"Dumfries, VA",us,38.56653214,-77.32874298,"Dumfries, VA",
"Fair Haven, NJ",us,40.36444473,-74.03553772,"Fair Haven, NJ",
"Sioux Falls, SD",us,43.54730988,-96.73130035,"Sioux Falls, SD",
"New Rochelle, NY",us,40.9115448,-73.78233337,"New Rochelle, NY",
"Bayonne, NY",us,40.66907883,-74.11717987,"Bayonne, NJ",
"Charlotte, NC",us,35.2237854,-80.84114075,"Charlotte, NC",
"Long Branch, NJ",us,40.30402374,-73.9927597,"Long Branch, NJ",
"Miami, FL",us,25.77508354,-80.19470215,"Miami, FL",
"Indianapolis, IN",us,39.76845169,-86.15621185,"Indianapolis, IN",
"Sterling, OH",us,40.96760941,-81.84806061,"Sterling, OH",
"Macon, GA",us,32.83809662,-83.67050934,"Macon, GA",
"Arlington, TX",us,32.7355957,-97.10710907,"Arlington, TX",
"San Pedro, CA",us,33.73333359,-118.2923508,"San Pedro, CA",
"Greenwich, CT",us,41.0265274,-73.62854767,"Greenwich, CT",
"Medford, MA",us,42.41855621,-71.10645294,"Medford, MA",
"Urbana, IL",us,40.11245728,-88.2074585,"Urbana, IL",
"White Plains, NY",us,41.03272629,-73.7663269,"White Plains, NY",
"Urbana, IL",us,40.11245728,-88.2074585,"Urbana, IL",
"Reno, NV",us,39.52690125,-119.8132858,"Reno, NV",
"West Bloomfield, MI",us,42.55755997,-83.36019135,"West Bloomfield Township, MI",
"Reno, NV",us,39.52690125,-119.8132858,"Reno, NV",
"Reno, NV",us,39.52690125,-119.8132858,"Reno, NV",
"Reno, NV",us,39.52690125,-119.8132858,"Reno, NV",
"Pheonix, AZ",us,33.44820404,-112.0725861,"Phoenix, AZ",
"Reno, NV",us,39.52690125,-119.8132858,"Reno, NV",
"Washington, DC",us,38.89206314,-77.01991272,"Washington, DC",
"Owego, NY",us,42.10326385,-76.26317596,"Owego, NY",
"Reno, NV",us,39.52690125,-119.8132858,"Reno, NV",
"Glen Cove, NY",us,40.86778641,-73.63976288,"Glen Cove, NY",
"Worchester, MA",us,42.26211929,-71.80223846,"Worcester, MA",
"New Rochelle, NY",us,40.9115448,-73.78233337,"New Rochelle, NY",
"Queens, NY",us,40.75977707,-73.81729889,"Queens, NY",
"Costa Mesa, CA",us,33.66385651,-117.9047623,"Costa Mesa, CA",
"Urbana, IL",us,40.11245728,-88.2074585,"Urbana, IL",
"El Paso, TX",us,31.76010704,-106.4922943,"El Paso, TX",
"Brookline, MA",us,42.33367538,-71.12088013,"Brookline, MA",
"Huntsville, AL",us,34.72954178,-86.58530426,"Huntsville, AL",
"Lubbuck, TX",us,33.58368683,-101.85495,"Lubbock, TX",
"Lincoln, NB",us,40.81359863,-96.7026062,"Lincoln, NE",
"Revere, MA",us,42.40996933,-71.01239777,"Revere, MA",
"Oak Ridge, TN",us,36.01523972,-84.26516724,"Oak Ridge, TN",
"Baltimore, MD",us,39.29044342,-76.61233521,"Baltimore, MD",
"Portland, OR",us,45.51601791,-122.681427,"Portland, OR",
"San Diego, CA",us,32.71575928,-117.1638184,"San Diego, CA",
"Harrisburg, PA",us,40.25959396,-76.88187408,"Harrisburg, PA",
"Jim Thorpe, TN",us,35.84299088,-86.34325409,Tennessee,
"Knoxville, TN",us,35.96264267,-83.91672516,"Knoxville, TN",Extracted from the link
"Massapeaqua, NY",us,40.68112946,-73.46916962,"Massapequa, NY",
"Chattanooga, TN",us,35.04575729,-85.30828857,"Chattanooga, TN",
"Mullica Hill, NJ",us,39.73996735,-75.22485352,"Mullica Hill, NJ",
"Dallas, TX",us,32.77797699,-96.79621124,"Dallas, TX",
"St. Petersburg, FL",us,27.77206993,-82.63848877,"St Petersburg, FL",
"Hollywood Park, TX",us,29.59965324,-98.48201752,"Hollywood Park, TX",
"Sumter, SC",us,33.93026733,-80.36747742,"Sumter, SC",
"Cynthiana, KY",us,38.39289856,-84.29250336,"Cynthiana, KY",
"Falmouth, MA",us,41.55260086,-70.61717987,"Falmouth, MA",
"Syracuse, NY",us,43.04794312,-76.14744568,"Syracuse, NY",
"Lakewood, NJ",us,40.08991241,-74.21627045,"Lakewood, NJ",
"Larkspur, CA",us,37.93417358,-122.5357132,"Larkspur, CA",
"Hillboro, OR",us,45.52394867,-122.9897385,"Hillsboro, OR",
"Washington, DC",us,38.89206314,-77.01991272,"Washington, DC",
"Reading, MA",us,42.52643204,-71.10481262,"Reading, MA",
"Spring Valley, NY",us,41.11326981,-74.04460907,"Spring Valley, NY",
"New Brunswick, NJ",us,40.49594879,-74.44412231,"New Brunswick, NJ",
"Tallahassee, FL",us,30.44074059,-84.27832794,"Tallahassee, FL",
"Minneapolis, MN",us,44.97748566,-93.26436615,"Minneapolis, MN",
"Charleston, NC",us,36.11706924,-77.38111115,"Charleston, NC",
"Arvada, CO",us,39.81298828,-105.0852203,"Arvada, CO",
"College Park, MD",us,38.98719406,-76.94599915,"College Park, MD",
"Pennsburg, PA",us,40.39089966,-75.49198151,"Pennsburg, PA",
"Gainesville, FL",us,29.65197563,-82.32501984,"Gainesville, FL",
"Savannah, GA",us,32.08060837,-81.09009552,"Savannah, GA",
"Norwell, MA",us,42.16176224,-70.79376221,"Norwell, MA",
"Parkland, FL",us,26.3106842,-80.23351288,"Parkland, FL",
"Dahinda, IL",us,40.9389267,-90.11322021,"Dahinda, IL",
"Glenelg, MD",us,39.26639175,-76.99098969,"Glenelg, MD",
"Norridge, IL",us,41.96590805,-87.82189178,"Norridge, IL",
"Oakland, CA",us,37.80482864,-122.2724762,"Oakland, CA",
"Haworth, NJ",us,40.9612999,-73.99919891,"Haworth, NJ",
"Lowell, MA",us,42.6454277,-71.30740356,"Lowell, MA",
"Lowell, MA",us,42.6454277,-71.30740356,"Lowell, MA",
"Miami Beach, FL",us,25.79223633,-80.13484955,"Miami Beach, FL",
"Miami Beach, FL",us,25.79223633,-80.13484955,"Miami Beach, FL",
"Miama Beach, FL",us,25.79223633,-80.13484955,"Miami Beach, FL",
"Miami Beach, FL",us,25.79223633,-80.13484955,"Miami Beach, FL",
"Miami Beach, FL",us,25.79223633,-80.13484955,"Miami Beach, FL",
"Durango, CO",us,37.28224945,-107.8777618,"Durango, CO",
"Columbus, IN",us,39.20139694,-85.92102814,"Columbus, IN",
"Asheville, NC",us,35.59591293,-82.5500412,"Asheville, NC",
"Budd Lake, NJ",us,40.8704567,-74.73514557,"Budd Lake, NJ",
"Bloomington, IN",us,39.16658783,-86.53488922,"Bloomington, IN",
"Bethesda, MD",us,38.98485565,-77.09268951,"Bethesda, MD",
"Reston, VA",us,38.960186,-77.35449982,"Reston, VA",
"Providence, RI",us,41.82446289,-71.41275024,"Providence, RI",
"Marshall, MN",us,44.44460678,-95.78540802,"Marshall, MN",
"Indianapolis, CO",us,2.456958055,-76.64546204,"Indianapolis, Colombia",
"Orange, OH",us,41.44076157,-81.48032379,"Orange, OH",
Snapchat,us,,,Not Found,"Via Snapchat, no geolocation"
"West Monroe, LA",us,32.52052689,-92.14650726,"West Monroe, LA",
"Athens, GA",us,33.95741272,-83.37680054,"Athens, GA",
"Saint Paul, MN",us,44.94371796,-93.09428406,"St Paul, MN",
"Washington, DC",us,38.89206314,-77.01991272,"Washington, DC",
"Broken Arrow, OK",us,36.05244827,-95.79080963,"Broken Arrow, OK",
"San Jose, CA",us,37.33479309,-121.8881454,"San Jose, CA",
"New York, NY",us,40.71304703,-74.00723267,"New York, NY",
", OR",us,43.93868637,-120.5581055,Oregon,
"Oak Park, CA",us,34.17514801,-118.7580948,"Oak Park, CA",
"Springfield, OR",us,44.04619217,-123.0220566,"Springfield, OR",
"San Francisco, CA",us,37.78007889,-122.4201584,"San Francisco, CA",
", OR",us,43.93868637,-120.5581055,Oregon,
"Palo Alto, CA",us,37.44510269,-122.1603622,"Palo Alto, CA",
"Boca Raton, FL",us,26.35051918,-80.08982849,"Boca Raton, FL",
"Austin, TX",us,30.26497841,-97.74659729,"Austin, TX",
"Richmond, VA",us,37.54076004,-77.43392944,"Richmond, VA",
"Louisville, KY",us,38.25607681,-85.75157166,"Louisville, KY",
"East Brunswick, NJ",us,40.42343903,-74.42468262,"East Brunswick, NJ",
"East Brunswick, NJ",us,40.42343903,-74.42468262,"East Brunswick, NJ",
"Brookfield, IL",us,41.822258,-87.84397125,"Brookfield, IL",
"Boise, ID",us,43.61579132,-116.2015762,"Boise, ID",
"Idaho Falls, ID",us,43.49133301,-112.0402679,"Idaho Falls, ID",
"Baltimore, MD",us,39.29044342,-76.61233521,"Baltimore, MD",
"Mashpee, MA",us,41.64896774,-70.48121643,"Mashpee, MA",
"Sparta, MI",us,43.15839767,-85.7101059,"Sparta, MI",
"New York, NY",us,40.71304703,-74.00723267,"New York, NY",
"Pensacola, FL",us,30.40689659,-87.21756744,"Pensacola, FL",
"Austin, TX",us,30.26497841,-97.74659729,"Austin, TX",
"Barstow, CA",us,34.89880371,-117.0271988,"Barstow, CA",
"Washington, DC",us,38.89206314,-77.01991272,"Washington, DC",
"River Grove, IL",us,41.92665863,-87.83446503,"River Grove, IL",
"River Grove, IL",us,41.92665863,-87.83446503,"River Grove, IL",
"Charlotte, NC",us,35.2237854,-80.84114075,"Charlotte, NC",
"College Park, MD",us,38.98719406,-76.94599915,"College Park, MD",
"Palo Alto, CA",us,37.44510269,-122.1603622,"Palo Alto, CA",
"Binghamton, NY",us,42.10221863,-75.91166687,"Binghamton, NY",
"New York, NY",us,40.71304703,-74.00723267,"New York, NY",
"Northridge, CA",us,34.24325943,-118.5323639,"Northridge, CA",
"Storm Lake, IA",us,42.64094543,-95.20085907,"Storm Lake, IA",
"Aztec, NM",us,36.83052444,-108.0095139,"Aztec, NM",
"New York, NY",us,40.71304703,-74.00723267,"New York, NY",
"Palo Alto, CA",us,37.44510269,-122.1603622,"Palo Alto, CA",
"Billings, MT",us,45.78264999,-108.5045776,"Billings, MT",
"Topeka, KS",us,39.0509758,-95.67043304,"Topeka, KS",
"San Luis Obispo, CA",us,35.28261948,-120.6600113,"San Luis Obispo, CA",
"West Mifflin, PA",us,40.35027313,-79.92701721,"West Mifflin, PA",
"New Albany, OH",us,40.08274078,-82.80876923,"New Albany, OH",
"Middleburgh Heights, OH",us,41.37082291,-81.80789185,"Middleburg Heights, OH",
"Las Cruces, NM",us,32.3162384,-106.7804489,"Las Cruces, NM",
"Miami Beach, FL",us,25.79223633,-80.13484955,"Miami Beach, FL",
"Pataskala, OH",us,39.99462128,-82.67524719,"Pataskala, OH",
"Durham, NC",us,35.99694824,-78.89902496,"Durham, NC",
"New York, NY",us,40.71304703,-74.00723267,"New York, NY",
"Webster, MA",us,42.03779221,-71.88336182,"Webster, MA",
"Brooklyn, NY",us,40.69252777,-73.99099731,"Brooklyn, NY",
"Leesburg, VA",us,39.10800171,-77.55063629,"Leesburg, VA",
"Sterling, VA",us,39.00166321,-77.40325165,"Sterling, VA",
"Wanaque, NJ",us,41.04514313,-74.2917099,"Wanaque, NJ",
"Milwaukee, MN",us,46.34914398,-94.19830322,Minnesota,
"Detroit, MI",us,42.33293915,-83.0478363,"Detroit, MI",
"Concord, NH",us,43.20956802,-71.53729248,"Concord, NH",
"Des Moines, IA",us,41.58882141,-93.62030792,"Des Moines, IA",
"Caldwell, ID",us,43.66281509,-116.6878891,"Caldwell, ID",
"Jamaica Plain, NY",us,42.93923187,-75.62004852,New York,
"Riverside, CA",us,33.9805336,-117.3770218,"Riverside, CA",
"Chicago, IL",us,41.8832283,-87.63240051,"Chicago, IL",
"Daleville, IN",us,40.12075424,-85.55719757,"Daleville, IN",
"Raymond, NH",us,43.04024124,-71.17076874,"Raymond, NH",
"Colorado Springs, CO",us,38.83522415,-104.8198013,"Colorado Springs, CO",
"Orinda, CA",us,37.88088608,-122.1861267,"Orinda, CA",